公司統一編號,公司名稱,分公司統一編號,分公司名稱,分公司地址,分公司狀態,lng,lat
22555003,統一超商股份有限公司,1846195,台北市第一七０分公司,臺北市士林區文林路169號,1,121.5267905,25.0895031
22555003,統一超商股份有限公司,16080140,台北巿第三四二分公司,臺北市松山區健康路224號,1,121.5610997,25.0538382
22555003,統一超商股份有限公司,16080155,台北縣第２５５分公司,新北市3峽區永館里9鄰民生街102號,3,121.369083,24.9341863
22555003,統一超商股份有限公司,16080161,台北縣第２５６分公司,新北市3峽區鳶山里十2鄰中山路186號,1,121.363915,24.936901
22555003,統一超商股份有限公司,16080177,新竹市第２６分公司,新竹市民富里7鄰北大路342號,1,120.9617079,24.8058451
22555003,統一超商股份有限公司,16080182,新竹市第２７分公司,新竹市新民里北大路286號,3,120.963422,24.8071671
22555003,統一超商股份有限公司,16080198,新竹巿第二十八分公司,新竹市金華里9鄰田美3街5號,3,120.9768259,24.8150493
22555003,統一超商股份有限公司,16080253,高雄巿第１５２分公司,高雄市小港區鳳源里鳳林路181、183號,1,120.344122,22.527242
22555003,統一超商股份有限公司,16080269,高雄巿第１５１分公司,高雄市前鎮區草衙里后安路146號,1,120.32294,22.573923
22555003,統一超商股份有限公司,16080275,桃園縣第４５分公司,桃園市蘆竹區南山路3段306、308號,1,121.286504,25.085279
22555003,統一超商股份有限公司,16080280,高雄巿第１５３分公司,高雄市3民區9如1路446號,3,120.3298279,22.6389931
22555003,統一超商股份有限公司,16080296,高雄巿第３５分公司,高雄市左營區新下里華夏路256號,1,120.297013,22.670436
22555003,統一超商股份有限公司,16080303,台南市第七十分公司,臺南市新化區協興里中山路624、626號,1,120.2995195,23.0367929
22555003,統一超商股份有限公司,16080319,宜蘭縣第6分公司,宜蘭縣羅東鎮南昌街53巷6-3號,1,121.7738241,24.6717369
22555003,統一超商股份有限公司,16080325,台南市第九十分公司,臺南市新營區民治東路1號,1,120.3226228,23.3109727
22555003,統一超商股份有限公司,16080330,雲林縣第１９分公司,雲林縣北港鎮華勝里公園路22號,3,120.3025863,23.5745885
22555003,統一超商股份有限公司,16080346,苗栗縣第１２分公司,苗栗縣苗栗市嘉盛里十鄰為公路741號,3,120.840913,24.574836
22555003,統一超商股份有限公司,16080351,苗栗縣第１１分公司,苗栗縣頭份市忠孝里十2鄰信東路158號,1,120.90904,24.6902507
22555003,統一超商股份有限公司,16080423,台中巿第一一五分公司,臺中市西屯區西墩里黎明路3段348號,1,120.639003,24.182115
22555003,統一超商股份有限公司,16080438,屏東縣第２３分公司,屏東縣麟洛鄉中山路166、166-1、166-2號,1,120.5268173,22.6508959
22555003,統一超商股份有限公司,16080444,屏東縣第２４分公司,屏東縣屏東市中山路1號,3,120.4863418,22.6697082
22555003,統一超商股份有限公司,16080459,高雄巿第１５４分公司,高雄市3民區安吉里民族1路98號,3,120.3147048,22.6438199
22555003,統一超商股份有限公司,16081133,台北縣第二五七分公司,新北市3重區光復路1段82號,1,121.4718871,25.0503582
22555003,統一超商股份有限公司,16081324,台北縣第２５８分公司,新北市板橋區中山路2段172號,3,121.4771512,25.0172143
22555003,統一超商股份有限公司,16081339,新竹巿第２９分公司,新竹市光復路2段163號,3,120.992408,24.7991719
22555003,統一超商股份有限公司,16081730,台北縣第２６０分公司,新北市新店區寶慶街66號,1,121.5417992,24.9868931
22555003,統一超商股份有限公司,16081746,台北縣第２５９分公司,新北市新店區北新路256號,3,121.5428892,24.978116
22555003,統一超商股份有限公司,16081751,桃園縣第９２分公司,桃園市桃園區力行路156號,1,121.3015258,25.0014908
22555003,統一超商股份有限公司,16081767,台南巿第１００分公司,臺南市東區路東里大同路2段95–3號,1,120.2135629,22.9787542
22555003,統一超商股份有限公司,16082040,台南市第九十九分公司,臺南市安南區城中里安中路599號,1,120.1985335,23.0410581
22555003,統一超商股份有限公司,16082127,桃園縣第９３分公司,桃園市8德區茄苳里2鄰中華路316、318、320、32,3,121.2699935,24.9779409
22555003,統一超商股份有限公司,16082132,桃園縣第９４分公司,桃園市中壢區慈惠3街153號,3,121.2256859,24.96479
22555003,統一超商股份有限公司,16082148,台北巿第二二四分公司,臺北市中山區民權東路3段71、73號,1,121.5435745,25.0625794
22555003,統一超商股份有限公司,16082153,台中巿第１１６分公司,臺中市東區十甲路132、132–1號,3,120.7010623,24.1445679
22555003,統一超商股份有限公司,16082169,彰化縣第三分公司,彰化縣2水鄉員集路4段6、8、10號,1,120.6161186,23.8113936
22555003,統一超商股份有限公司,16082175,台北巿第２３３分公司,臺北市南港區東新街80巷1號、108巷2弄30號,1,121.5870695,25.0463022
22555003,統一超商股份有限公司,16082180,高雄巿第１５５分公司,高雄市前金區新生里7賢2路254號,3,120.2924855,22.6322272
22555003,統一超商股份有限公司,16082196,高雄市第三三四分公司,高雄市鳳山區武漢里武慶2路52、54號,1,120.3330579,22.611094
22555003,統一超商股份有限公司,16082647,台北縣第２６１分公司,新北市板橋區松江街118號,3,121.469198,25.0303195
22555003,統一超商股份有限公司,16082652,台北縣第２６２分公司,新北市中和區景平路517、519號,3,121.4992064,24.9987841
22555003,統一超商股份有限公司,16082674,台北縣第１０３分公司,新北市貢寮區延平街63號,3,121.9244972,25.0558936
22555003,統一超商股份有限公司,16082787,台北巿第３４３分公司,臺北市中山區民生東路2段157號,1,121.5358553,25.0581224
22555003,統一超商股份有限公司,16082793,屏東縣第２５分公司,屏東縣內埔鄉南寧路19、21號,1,120.565357,22.617291
22555003,統一超商股份有限公司,16083110,嘉義縣第８分公司,嘉義縣朴子市竹圍里5鄰南通路3段767、769號,3,120.2429955,23.4636131
22555003,統一超商股份有限公司,16083391,嘉義巿第２９分公司,嘉義市西區福全里34鄰8德路73號,1,120.4306583,23.4836948
22555003,統一超商股份有限公司,16083408,台中市第一０三分公司,臺中市霧峰區坑口里中正路563、563-1號,1,120.6923329,24.0466132
22555003,統一超商股份有限公司,16083414,台中縣第７６分公司,臺中市太平區樹孝路109號,3,120.7173951,24.1525158
22555003,統一超商股份有限公司,16083603,台北縣第２６３分公司,新北市板橋區國慶路151號,1,121.461471,24.996175
22555003,統一超商股份有限公司,16083619,台北縣第２６４分公司,新北市樹林區3福街39、41號,1,121.4084085,25.0166365
22555003,統一超商股份有限公司,16083625,桃園縣第９５分公司,桃園市桃園區西湖里3民路3段190號,3,121.3048335,24.9935713
22555003,統一超商股份有限公司,16083694,台北縣第２６６分公司,新北市3重區中正北路189號,3,121.4773711,25.0696361
22555003,統一超商股份有限公司,16083701,台北縣第二六七分公司,新北市樹林區樹林市3俊街172號,1,121.4175783,25.0154425
22555003,統一超商股份有限公司,16083717,新北市第二六八分公司,新北市樹林區光華街2、4、6號,1,121.4136046,25.0037436
22555003,統一超商股份有限公司,16083723,台北巿第２３７分公司,臺北市信義區吳興街257、259號,1,121.5637452,25.027249
22555003,統一超商股份有限公司,16083738,台北巿第２１３分公司,臺北市中山區伊通街30號,1,121.5346609,25.0508746
22555003,統一超商股份有限公司,16083744,台北縣第２６５分公司,新北市淡水區賢孝里6鄰淡金路4段530號,3,121.452015,25.226607
22555003,統一超商股份有限公司,16083759,基隆巿第１０分公司,基隆市安樂區基金1路168–21號,3,121.717016,25.136506
22555003,統一超商股份有限公司,16083765,台北縣第２６９分公司,新北市新店區安和路1段1、3號,3,121.5170251,24.9649894
22555003,統一超商股份有限公司,16083771,台中巿第一一七分公司,臺中市東區自由路3段226號、進德路77號,1,120.692625,24.142577
22555003,統一超商股份有限公司,16083786,台中巿第一一八分公司,臺中市南區復興路3段138、140號,1,120.6731428,24.1301974
22555003,統一超商股份有限公司,16083792,台中縣第七十七分公司,臺中市潭子區新興路1段354號,3,120.7097513,24.1960556
22555003,統一超商股份有限公司,16084011,高雄市第四四八分公司,高雄市旗山區瑞吉里延平1路446號,1,120.4832438,22.8917085
22555003,統一超商股份有限公司,16084238,台南縣第五十二分公司,臺南市仁德區2行村2仁路1段151號,1,120.2209801,22.9212251
22555003,統一超商股份有限公司,16084244,台北縣第２７０分公司,新北市新莊區化成路283號,3,121.465802,25.054769
22555003,統一超商股份有限公司,16084259,高雄巿第十一分公司,高雄市3民區寶玉里大豐2路348、350、352號,1,120.3345024,22.6465659
22555003,統一超商股份有限公司,16084265,高雄縣第５２分公司,高雄市鳳山區5甲1路162號,3,120.3558149,22.6196295
22555003,統一超商股份有限公司,16084271,高雄市第三三五分公司,高雄市鳳山區鎮南里5甲2路744號,1,120.3287323,22.5938264
22555003,統一超商股份有限公司,16084547,台北縣第２７１分公司,新北市中和區中和路257號,1,121.5050871,24.999834
22555003,統一超商股份有限公司,16084552,桃園縣第８８分公司,桃園市中壢區自強里十5鄰環中東路8號,1,121.260198,24.967237
22555003,統一超商股份有限公司,16084568,桃園縣第９６分公司,桃園市平鎮區義民里廣泰路77號,3,121.2053006,24.9466922
22555003,統一超商股份有限公司,16084574,台南市第6分公司,臺南市南區夏林路1-16、1-17號,1,120.1951699,22.9860675
22555003,統一超商股份有限公司,16084687,台南巿第４７分公司,臺南市南區金華路1段27號,1,120.1890915,22.9616727
22555003,統一超商股份有限公司,16084693,高雄市第四四三分公司,高雄市阿蓮區中正路407號,1,120.3321361,22.8805737
22555003,統一超商股份有限公司,16085004,台北巿第３４４分公司,臺北市士林區天玉里8鄰天母西路5巷6號,3,121.5288971,25.1191098
22555003,統一超商股份有限公司,16085010,新竹巿第３０分公司,新竹市文雅里十8鄰竹光路123號,1,120.9591993,24.8128161
22555003,統一超商股份有限公司,16085026,新北市第二七二分公司,新北市中和區積穗里新生街48、50號,1,121.483205,25.0031337
22555003,統一超商股份有限公司,16085095,台南市第１０１分公司,臺南市南區大忠里中華南路1段138號,3,120.210913,22.969614
22555003,統一超商股份有限公司,16085102,高雄巿第１２１分公司,高雄市小港區港明里平和路156號,1,120.332135,22.567277
22555003,統一超商股份有限公司,16085237,台北市第３３１分公司,臺北市中山區林森北路262號,1,121.5253106,25.0546678
22555003,統一超商股份有限公司,16085243,台北市第３４５分公司,臺北市中山區中山北路2段74號,3,121.522495,25.0571989
22555003,統一超商股份有限公司,16085258,台北市第３４６分公司,臺北市萬華區環河南路2段200號,1,121.4930782,25.0340846
22555003,統一超商股份有限公司,16085378,台北縣第２７３分公司,新北市林口區中山路164號,3,121.3902586,25.0789496
22555003,統一超商股份有限公司,16085383,桃園縣第９７分公司,桃園市龍潭區烏樹林里中豐路317號,1,121.2115212,24.8784829
22555003,統一超商股份有限公司,16085399,桃園縣第９８分公司,桃園市平鎮區平東路241、243號,3,121.248649,24.915496
22555003,統一超商股份有限公司,16085932,南投縣第１４分公司,南投縣南投市南崗3路十號,3,120.6720624,23.9234945
22555003,統一超商股份有限公司,16086165,屏東縣第１５分公司,屏東縣東港鎮延平路107號,1,120.4486697,22.4676735
22555003,統一超商股份有限公司,16086284,雲林縣第２０分公司,雲林縣北港鎮新街里華勝路416號,3,120.3003035,23.584727
22555003,統一超商股份有限公司,16086290,嘉義縣第９分公司,嘉義縣朴子市開元里開元路154號,3,120.2444336,23.4671778
22555003,統一超商股份有限公司,16086307,嘉義縣第１０分公司,嘉義縣新港鄉宮前村十9鄰中山路85–5號,3,120.3475079,23.5542976
22555003,統一超商股份有限公司,16086313,台南縣第５３分公司,臺南市仁德區32鄰中山路664、666、668號,3,120.2480151,22.9727818
22555003,統一超商股份有限公司,16086762,台中巿第十七分公司,臺中市南屯區向上南路1段325號,1,120.6476674,24.1448786
22555003,統一超商股份有限公司,16086778,彰化縣第十二分公司,彰化縣員林市大同路1段238號,1,120.5802474,23.960899
22555003,統一超商股份有限公司,16086783,台南巿第１０２分公司,臺南市中西區府前路1段144號,1,120.1975012,22.9904859
22555003,統一超商股份有限公司,16086799,台南縣第５４分公司,臺南市永康區中華里小東路625號,3,120.237928,22.9986371
22555003,統一超商股份有限公司,16086910,台北縣第８０分公司,新北市泰山區明志路2段216號,3,121.427275,25.0488763
22555003,統一超商股份有限公司,16086926,台北巿第３４７分公司,臺北市中山區民權西路66號,1,121.5200647,25.0626036
22555003,統一超商股份有限公司,16086931,台北巿第３４８分公司,臺北市北投區立德路125號,3,121.4720103,25.1284955
22555003,統一超商股份有限公司,16086947,台北縣第二七四分公司,新北市泰山區同興里6鄰明志路1段421號,3,121.430912,25.0569118
22555003,統一超商股份有限公司,16087241,台北巿第三四九分公司,臺北市士林區福順里重慶北路4段149、151號,1,121.5118104,25.0832277
22555003,統一超商股份有限公司,16087256,桃園縣第９９分公司,桃園市中壢區普義路175、175-1號,1,121.231422,24.9608463
22555003,統一超商股份有限公司,16087262,新竹巿第３１分公司,新竹市光明里十4鄰大學路58、6號,1,121.00054,24.7895427
22555003,統一超商股份有限公司,16087278,高雄巿第１５７分公司,高雄市前鎮區永豐路十4號,1,120.3333171,22.6059918
22555003,統一超商股份有限公司,16087811,台中巿第１１９分公司,臺中市西屯區工業區1路54–1、54–2號,3,120.6146443,24.1800881
22555003,統一超商股份有限公司,16087827,台中縣第七十八分公司,臺中市烏日區中山路1段374號,3,120.638038,24.107842
22555003,統一超商股份有限公司,16087832,高雄巿第１５６分公司,高雄市意誠里3多4路93號,1,120.300952,22.612632
22555003,統一超商股份有限公司,16088157,屏東縣第２６分公司,屏東縣內埔鄉老埤村壽比路742、742–1號,3,120.5956009,22.6403752
22555003,統一超商股份有限公司,16088163,彰化縣第二十七分公司,彰化縣花壇鄉中山路2段1、3、5號,1,120.539009,24.025708
22555003,統一超商股份有限公司,16088179,台中巿第四十七分公司,臺中市西屯區大隆路56號,1,120.6531319,24.1563713
22555003,統一超商股份有限公司,16088184,台中縣第七十九分公司,臺中市大里區成功路491、493號,3,120.7030285,24.0901591
22555003,統一超商股份有限公司,16088190,彰化縣第二十三分公司,彰化縣田中鎮福安路144、146號,1,120.5891133,23.8615234
22555003,統一超商股份有限公司,16088488,台北縣第２７５分公司,新北市中和區興南路2段90號,1,121.5054095,24.9844684
22555003,統一超商股份有限公司,16088494,新竹巿第３２分公司,新竹市北區福林里9鄰東大路2段261號,3,120.9642002,24.81695
22555003,統一超商股份有限公司,16088500,高雄市第三八九分公司,高雄市大社區中山路261號,1,120.349125,22.731944
22555003,統一超商股份有限公司,16088760,台北巿第３５０分公司,臺北市大安區和平東路2段118巷33號,1,121.5429266,25.023535
22555003,統一超商股份有限公司,16088776,台北縣第２７６分公司,新北市板橋區文化路1段287號,3,121.4652441,25.0187829
22555003,統一超商股份有限公司,16088781,高雄縣第５７分公司,高雄市旗山區延平1路78號,3,120.4820367,22.8982922
22555003,統一超商股份有限公司,16089022,台中縣第８１分公司,臺中市大肚區沙田路3段882號,3,120.5424571,24.1693292
22555003,統一超商股份有限公司,16089037,南投縣第１５分公司,南投縣鹿谷鄉鹿谷村仁義路148號,3,120.7524,23.7460911
22555003,統一超商股份有限公司,16089043,高雄巿第１５９分公司,高雄市3民區港東里中山1路336、338號,3,120.3049893,22.636999
22555003,統一超商股份有限公司,16089058,高雄市第四五九分公司,高雄市橋頭區白樹路53號,1,120.3051627,22.758572
22555003,統一超商股份有限公司,16089178,桃園縣第１０１分公司,桃園市中壢區龍岡路3段192、194號,3,121.2340135,24.9354194
22555003,統一超商股份有限公司,16089183,桃園縣第１００分公司,桃園市中壢區東興里新興路162號,1,121.2263577,24.9530002
22555003,統一超商股份有限公司,16089199,台北巿第３５１分公司,臺北市北投區明德路99號,1,121.5193952,25.109518
22555003,統一超商股份有限公司,16089732,台北巿第３５２分公司,臺北市中山區復興北路164號,1,121.5437149,25.0535134
22555003,統一超商股份有限公司,16089971,屏東縣第二十九分公司,屏東縣恆春鎮墾丁里墾丁路6、62號,3,120.805622,21.942781
22555003,統一超商股份有限公司,16090175,台中縣第八十二分公司,臺中市龍井區忠和村中央路3段51號,1,120.5248836,24.2121783
22555003,統一超商股份有限公司,16090180,台中縣第八十三分公司,臺中市大肚區福山村沙田路1段426–7號,3,120.5651983,24.1232861
22555003,統一超商股份有限公司,16090196,台中縣第八十四分公司,臺中市清水區西社里海濱路168之1號,3,120.5669489,24.272289
22555003,統一超商股份有限公司,16090203,台中縣第八十五分公司,臺中市神岡區中山路736號,1,120.6803676,24.2482292
22555003,統一超商股份有限公司,16090267,台北巿第３５３分公司,臺北市松山區南京東路3段342號,3,121.5480413,25.0514132
22555003,統一超商股份有限公司,16090273,彰化縣第３０分公司,彰化縣和美鎮犁盛里彰新路2段545號,3,120.5333393,24.1046359
22555003,統一超商股份有限公司,16090463,台中縣第八０分公司,臺中市大里區大明路238號,1,120.6837599,24.1153655
22555003,統一超商股份有限公司,16090479,屏東縣第２８分公司,屏東縣屏東市永安里建國路99–1號,3,120.482763,22.66478
22555003,統一超商股份有限公司,16090484,屏東縣第２７分公司,屏東縣屏東市潭墘里大同北路1號、勝利路262之2號,1,120.4748841,22.6788598
22555003,統一超商股份有限公司,16090490,高雄巿第１５８分公司,高雄市3民區莊敬路289號,1,120.3183874,22.6496688
22555003,統一超商股份有限公司,16090652,台北縣第２７７分公司,臺北縣蘆洲鄉中原里十6鄰中正路185巷6號,3,121.468346,25.0854619
22555003,統一超商股份有限公司,16090668,嘉義縣第１１分公司,嘉義縣民雄鄉民權路42-2號,1,120.431273,23.558111
22555003,統一超商股份有限公司,16090674,雲林縣第二十一分公司,雲林縣元長鄉中山路32、32-2號,1,120.3136674,23.6496782
22555003,統一超商股份有限公司,16090689,桃園縣第１０２分公司,桃園市桃園區莊敬里經國路242號,1,121.3041053,25.0206724
22555003,統一超商股份有限公司,16090718,台中巿第１２０分公司,臺中市西屯區臺中港路3段196號,3,120.5951435,24.1908428
22555003,統一超商股份有限公司,16090724,彰化縣第三十一分公司,彰化縣彰化市南興里天祥路359號,1,120.5332524,24.0615365
22555003,統一超商股份有限公司,16090739,彰化縣第三十二分公司,彰化縣彰化市平和里金馬路3段784號,3,120.5306568,24.0760081
22555003,統一超商股份有限公司,16090745,彰化縣第３３分公司,彰化縣彰化市國聖里中山路3段512號,3,120.566727,24.089977
22555003,統一超商股份有限公司,16090750,彰化縣第三十四分公司,彰化縣伸港鄉新港村中興路1段355號,1,120.4889395,24.1474316
22555003,統一超商股份有限公司,16091441,台北縣第２７８分公司,新北市中和區忠孝街103、103–1號,1,121.5119514,24.9862036
22555003,統一超商股份有限公司,16091456,高雄巿第１６０分公司,高雄市前鎮區竹內里賢明路3、5號,1,120.3245999,22.608969
22555003,統一超商股份有限公司,16091462,高雄巿第一六一分公司,高雄市楠梓區裕昌里後昌路1285號,3,120.2883307,22.7158682
22555003,統一超商股份有限公司,16091478,高雄市第三三六分公司,高雄市鳳山區中崙4路2號,3,120.3526893,22.5996362
22555003,統一超商股份有限公司,16091630,台北縣第二八０分公司,新北市汐止區汐萬路2段62巷11號1、2樓,1,121.6498738,25.0822955
22555003,統一超商股份有限公司,16091646,桃園縣第１０４分公司,桃園市桃園區大興西路2段1號,1,121.3001552,25.0120518
22555003,統一超商股份有限公司,16091651,台南巿第１０４分公司,臺南市中西區協和里29鄰和善街54號,3,120.1907301,23.0015284
22555003,統一超商股份有限公司,16091667,高雄巿第１６３分公司,高雄市新興區新江里中山1路272號,3,120.302531,22.635208
22555003,統一超商股份有限公司,16091673,高雄巿第１６４分公司,高雄市3民區鼎復里鼎山街684號,3,120.316316,22.649755
22555003,統一超商股份有限公司,16091688,高雄市第三七四分公司,高雄市林園區東林村鳳林路1段1號,3,120.397675,22.500865
22555003,統一超商股份有限公司,16091694,桃園縣第１０３分公司,桃園市平鎮區南勢里十4鄰中豐路南勢2段377、379、3,1,121.2111043,24.9195115
22555003,統一超商股份有限公司,16091701,台中縣第八十六分公司,臺中市沙鹿區臺灣大道7段812號,1,120.5680766,24.2385412
22555003,統一超商股份有限公司,16091717,台南巿第１０３分公司,臺南市中西區大涼里中華西路2段36號,1,120.1870528,22.992779
22555003,統一超商股份有限公司,16091723,高雄巿第１６２分公司,高雄市3民區精華里9如2路446號,3,120.29981,22.641601
22555003,統一超商股份有限公司,16092336,台北巿第３５４分公司,臺北市文山區景中街45號,1,121.5440414,24.9927198
22555003,統一超商股份有限公司,16092342,台北縣第２７９分公司,新北市3峽區永館里21鄰文化路122號,1,121.369083,24.9341863
22555003,統一超商股份有限公司,16092357,苗栗縣第１３分公司,苗栗縣苗栗市中正路408號,3,120.8222284,24.5607429
22555003,統一超商股份有限公司,16092363,台中巿第１２１分公司,臺中市北區賴厝里漢口路4段56、58、6號,3,120.674885,24.166788
22555003,統一超商股份有限公司,16093567,台北縣第２８１分公司,新北市永和區福和路196號,3,121.5200461,25.0078359
22555003,統一超商股份有限公司,16093573,新竹巿第３３分公司,新竹市北區光華里十鄰湳雅街46號,1,120.9708305,24.817872
22555003,統一超商股份有限公司,16093588,高雄巿第１６５分公司,高雄市楠梓區加昌里4鄰樂群路153、155號,1,120.2970019,22.7183071
22555003,統一超商股份有限公司,16093594,高雄巿第１６６分公司,高雄市3民區德智里自由1路105號,3,120.308568,22.643752
22555003,統一超商股份有限公司,16093855,台北縣第２８４分公司,新北市土城區中華路1段187號,3,121.4460527,24.9884929
22555003,統一超商股份有限公司,16093861,高雄巿第１６７分公司,高雄市鼓山區光化里鼓山2路33號,3,120.2809219,22.6308476
22555003,統一超商股份有限公司,16094242,桃園縣第一０五分公司,桃園市8德區大同里21鄰福國北街82號,3,121.2953206,24.9610699
22555003,統一超商股份有限公司,16094257,彰化縣第三十五分公司,彰化縣彰化市進德路27號,3,120.558396,24.0834109
22555003,統一超商股份有限公司,16094263,台中縣第八十七分公司,臺中市豐原區3豐路2段186、188號,1,120.7212966,24.2709695
22555003,統一超商股份有限公司,16094279,台南縣第５５分公司,臺南市6甲區6甲村22鄰中正路552號,1,120.3516856,23.2307499
22555003,統一超商股份有限公司,16094361,台北巿第３５５分公司,臺北市中山區長安東路2段176號,3,121.5405557,25.0482515
22555003,統一超商股份有限公司,16094377,台北縣第２８２分公司,新北市汐止區中興路105號,1,121.6322706,25.0647455
22555003,統一超商股份有限公司,16094382,台南巿第１０５分公司,臺南市中西區工業里民族路3段92號,3,120.197621,22.998615
22555003,統一超商股份有限公司,16094398,台南縣第５６分公司,臺南市永康區大橋里中華路762、764號,3,120.2282853,23.0172839
22555003,統一超商股份有限公司,16094475,台北縣第二八三分公司,臺北縣汐止鎮忠孝里樟樹1路121號,3,121.64196,25.064458
22555003,統一超商股份有限公司,16094480,台中巿第１２２分公司,臺中市西屯區中工2路196號,3,120.6157172,24.1764909
22555003,統一超商股份有限公司,16094496,台中縣第八十八分公司,臺中市烏日區中山路2段289號,1,120.6233477,24.1062137
22555003,統一超商股份有限公司,16094502,台南巿第１０６分公司,臺南市東區前鋒路16號,1,120.2128125,22.9900343
22555003,統一超商股份有限公司,16094518,台南巿第１０７分公司,臺南市東區府宅里大同路1段173號,3,120.2121957,22.9806201
22555003,統一超商股份有限公司,16094778,新竹市第３４分公司,新竹市西大路642號,1,120.961239,24.8078891
22555003,統一超商股份有限公司,16094783,新竹縣第１７分公司,新竹縣湖口鄉孝勢村9鄰忠孝路2、22號,1,121.046041,24.901166
22555003,統一超商股份有限公司,16094799,新竹縣第１６分公司,新竹縣湖口鄉鳳凰村漢陽路1號,3,121.0262164,24.8632625
22555003,統一超商股份有限公司,16094952,台北縣第２８５分公司,新北市中和區中和路380號,1,121.5106826,25.0020802
22555003,統一超商股份有限公司,16094968,台中巿第１２３分公司,臺中市北區崇德路1段99號,3,120.6848449,24.1588155
22555003,統一超商股份有限公司,16094974,台中縣第８９分公司,臺中市太平區?L仔坑路328號,3,120.7584831,24.1516833
22555003,統一超商股份有限公司,16094989,屏東縣第３０分公司,屏東縣東港鎮興東里中正路1段206號,1,120.4507605,22.4683792
22555003,統一超商股份有限公司,16095100,高雄巿第１６８分公司,高雄市3民區灣興里民族1路239號,3,120.3148485,22.6508516
22555003,統一超商股份有限公司,16095116,高雄市第三七五分公司,高雄市林園區鳳芸2路57號 / 鳳芸路3號,1,120.397245,22.4871033
22555003,統一超商股份有限公司,16095122,高雄市第三三七分公司,高雄市鳳山區忠義里中山西路396、398、400號,1,120.3401574,22.6293152
22555003,統一超商股份有限公司,16095137,屏東縣第３１分公司,屏東縣枋山鄉楓港村十7鄰舊庄路21號,3,120.6918242,22.1947497
22555003,統一超商股份有限公司,16095447,台中巿第一二四分公司,臺中市北屯區昌平路2段45之8、45之9號,1,120.683287,24.1915361
22555003,統一超商股份有限公司,16095452,台南縣第５７分公司,臺南市永康區甲頂里中正南路186號,3,120.218618,23.023576
22555003,統一超商股份有限公司,16095468,新竹巿第３５分公司,新竹市西門里3鄰中山路100號,1,120.9653234,24.8045972
22555003,統一超商股份有限公司,16095474,雲林縣第２２分公司,雲林縣麥寮鄉麥津村中山路196號,1,120.2562718,23.7486018
22555003,統一超商股份有限公司,16096620,台北縣第２８８分公司,新北市新莊區福營里6鄰中正路587、587–1、589號,3,121.427911,25.033268
22555003,統一超商股份有限公司,16096635,台中縣第九十分公司,臺中市太平區精美路1、1–1號,1,120.7214625,24.1200421
22555003,統一超商股份有限公司,16096641,高雄縣第６３分公司,高雄市岡山區介壽路十9、2號,3,120.290435,22.785226
22555003,統一超商股份有限公司,16096733,台北縣第２８９分公司,新北市泰山區泰林路2段515、517號,1,121.4241534,25.0637475
22555003,統一超商股份有限公司,16096749,新北市第二九○分公司,新北市3重區重新路5段609巷12號之9、12號之10,3,121.46849,25.0467329
22555003,統一超商股份有限公司,16096754,彰化縣第３６分公司,彰化縣田中鎮員集路2段448、450號,3,120.5852723,23.8601709
22555003,統一超商股份有限公司,16096760,高雄市第三八０分公司,高雄市鳥松區球場路30之5號,3,120.335887,22.6553528
22555003,統一超商股份有限公司,16096776,台北縣第２８６分公司,新北市新莊區民安里十3鄰民安西路58號,3,121.4272196,25.0204581
22555003,統一超商股份有限公司,16096781,台北縣第二八七分公司,新北市新莊區西盛街325、327號,1,121.4280958,25.0146667
22555003,統一超商股份有限公司,16097796,台北巿第３５６分公司,臺北市士林區士東路48號,1,121.5278481,25.1119193
22555003,統一超商股份有限公司,16097965,台北巿第３５７分公司,臺北市松山區8德路4段658號,3,121.5756844,25.0498982
22555003,統一超商股份有限公司,16097971,台北巿第３５８分公司,臺北市大安區大安路2段102號,1,121.5458506,25.0308364
22555003,統一超商股份有限公司,16097986,台北巿第３５９分公司,臺北市士林區德行東路262號,1,121.5347471,25.1097429
22555003,統一超商股份有限公司,16097992,新竹巿第３６分公司,新竹市光鎮里十2鄰南大路754號,3,120.9652714,24.7901388
22555003,統一超商股份有限公司,16098182,基隆市第２１分公司,基隆市中正區祥豐街339號,1,121.7677381,25.1446738
22555003,統一超商股份有限公司,16098198,新竹縣第１８分公司,新竹縣竹北市新社里中正西路134號,1,121.0015445,24.8405732
22555003,統一超商股份有限公司,16098330,台東縣第１分公司,臺東縣臺東市中山路395、395–1號,3,121.1488148,22.7533813
22555003,統一超商股份有限公司,16098346,台東縣第２分公司,臺東縣臺東市中華路1段324號,3,121.1527787,22.753932
22555003,統一超商股份有限公司,16098351,台東縣第３分公司,臺東縣臺東市中華路1段405、407號,3,121.1527787,22.753932
22555003,統一超商股份有限公司,16098367,台東縣第四分公司,臺東縣卑南鄉明峰村忠孝路164、166、168號,1,121.0923234,22.8562271
22555003,統一超商股份有限公司,16098508,嘉義縣第１２分公司,嘉義縣朴子市竹圍里十1鄰大同路212號,3,120.2413517,23.4614483
22555003,統一超商股份有限公司,16098514,宜蘭縣第１３分公司,宜蘭縣羅東鎮興東南路188號,1,121.767172,24.673132
22555003,統一超商股份有限公司,16098520,台北巿第３６０分公司,臺北市大安區東豐街9號,1,121.5442913,25.0361134
22555003,統一超商股份有限公司,16098535,台北縣第２９１分公司,新北市汐止區忠孝東路2821,1,121.6637843,25.0682984
22555003,統一超商股份有限公司,16098599,台北縣第２９２分公司,新北市蘆洲區保新里4鄰3民路230號,1,121.4684872,25.0896007
22555003,統一超商股份有限公司,16098606,新竹巿第３７分公司,新竹市建功里建功路6號,1,120.9982465,24.796193
22555003,統一超商股份有限公司,16098612,雲林縣第２３分公司,雲林縣4湖鄉4湖村中山東路113號,1,120.2259039,23.6374352
22555003,統一超商股份有限公司,16098900,花蓮縣第１分公司,花蓮縣花蓮市中正路383、385號：花蓮縣花蓮市和平路376樓1號,1,121.6031807,23.9746268
22555003,統一超商股份有限公司,16098916,花蓮縣第２分公司,花蓮縣吉安鄉中華路2段5號,1,121.5878128,23.97394
22555003,統一超商股份有限公司,16098922,花蓮縣第３分公司,花蓮縣吉安鄉自強路504號,3,121.5914827,23.9860241
22555003,統一超商股份有限公司,16098937,花蓮縣第４分公司,花蓮縣新城鄉嘉新村嘉新164、164–1號,3,121.6098131,24.0077346
22555003,統一超商股份有限公司,16099339,台東縣第５分公司,臺東縣臺東市正氣北路389號,1,121.1337214,22.7538368
22555003,統一超商股份有限公司,16099345,南投縣第１６分公司,南投縣埔里鎮中正路376、380號,3,120.968316,23.9644659
22555003,統一超商股份有限公司,16099350,雲林縣第２４分公司,雲林縣水林鄉水南村水林路157、159號,1,120.2454591,23.572348
22555003,統一超商股份有限公司,16431223,桃園縣第１０６分公司,桃園市龜山區文明路43號,1,121.3790806,25.0558005
22555003,統一超商股份有限公司,16431238,南投縣第十七分公司,南投縣埔里鎮大湳里中山路1段423號,1,120.980462,23.97432
22555003,統一超商股份有限公司,16431244,彰化縣第三十七分公司,彰化縣員林市中正路75號,1,120.5756626,23.9511224
22555003,統一超商股份有限公司,16431928,高雄市第一六九分公司,高雄市前鎮區民權里鄭和路47、49號,3,120.313358,22.607635
22555003,統一超商股份有限公司,16431933,高雄市第三三八分公司,高雄市鳳山區埤頂里建國路1段79號 / 埤頂里建國路1段53巷2弄10號,1,120.356594,22.636738
22555003,統一超商股份有限公司,16431949,屏東縣第三十二分公司,屏東縣屏東市斯文里22鄰自由路501號,3,120.4903911,22.6831707
22555003,統一超商股份有限公司,16432519,新竹巿第３８分公司,新竹市文華里6鄰北大路38號,1,120.972843,24.8128611
22555003,統一超商股份有限公司,16432686,台北縣第２９３分公司,新北市新莊區福基里十7鄰5權1路8號,3,121.4613294,25.0598767
22555003,統一超商股份有限公司,16432692,新北市第二九四分公司,新北市新莊區福基里十7鄰5工2路89、91號,1,121.4594614,25.066481
22555003,統一超商股份有限公司,16432709,桃園縣第１０７分公司,桃園市新屋區新生里十2鄰中山路367、369、371號1,1,121.1021426,24.9728424
22555003,統一超商股份有限公司,16432715,桃園縣第１０８分公司,桃園市中壢區興仁路2段57號,1,121.2627239,24.9675531
22555003,統一超商股份有限公司,16432721,台東縣第６分公司,臺東縣臺東市新興里22鄰中華路1段833號,3,121.1527787,22.753932
22555003,統一超商股份有限公司,16432911,台北巿第３６１分公司,臺北市大安區建國南路1段274號,1,121.5372892,25.0363427
22555003,統一超商股份有限公司,16432927,台北巿第三六二分公司,臺北市中正區永昌里21鄰中華路2段405、407號,1,121.5082565,25.0260137
22555003,統一超商股份有限公司,16432932,嘉義巿第３０分公司,嘉義市西區大溪里北港路597號,1,120.4192225,23.4852796
22555003,統一超商股份有限公司,16432948,嘉義縣第１３分公司,嘉義縣民雄鄉建國路3段172號,3,120.4395817,23.5241122
22555003,統一超商股份有限公司,16433025,台北巿第３６３分公司,臺北市大安區仁愛路4段266巷十5弄十8號,3,121.5544003,25.0387867
22555003,統一超商股份有限公司,16433046,台北縣第２９５分公司,新北市土城區裕民路257–1號,3,121.4549138,24.9828389
22555003,統一超商股份有限公司,16433051,高雄巿第１７０分公司,高雄市新興區興昌里22鄰中正3路3號,3,120.3112663,22.6305683
22555003,統一超商股份有限公司,16433067,高雄市第三六八分公司,高雄市鳥松區大智路5、7號,1,120.3612213,22.6591343
22555003,統一超商股份有限公司,16433355,宜蘭縣第十四分公司,宜蘭縣礁溪鄉礁溪路4段85、87號,1,121.7688544,24.8195917
22555003,統一超商股份有限公司,16433361,花蓮縣第５分公司,花蓮縣吉安鄉慶豐村24鄰中山路3段423號,1,121.5675121,23.9795391
22555003,統一超商股份有限公司,16433377,台中巿第一二五分公司,臺中市北屯區興安路1段264、266號,3,120.6945273,24.1724374
22555003,統一超商股份有限公司,16433382,台中巿第一二六分公司,臺中市北屯區興安路2段6號,3,120.6947115,24.1748141
22555003,統一超商股份有限公司,16433860,台北縣第二九七分公司,新北市土城區亞洲路104、106號,3,121.434189,24.9725029
22555003,統一超商股份有限公司,16433876,彰化縣第３８分公司,彰化縣溪湖鎮員鹿路1段111號,3,120.5003619,23.953879
22555003,統一超商股份有限公司,16433881,台南縣第５８分公司,臺南市麻豆區東角里1鄰興中路169號,3,120.2530376,23.183832
22555003,統一超商股份有限公司,16433897,台南縣第５９分公司,臺南市學甲區慈生里1鄰中正路298號,1,120.181308,23.233637
22555003,統一超商股份有限公司,16434571,高雄縣第六十七分公司,高雄市湖內區田尾村中山路1段482、484號,3,120.2412306,22.8942505
22555003,統一超商股份有限公司,16434586,屏東縣第３３分公司,屏東縣車城鄉中山路74、76號,1,120.7138443,22.0744931
22555003,統一超商股份有限公司,16434592,台北縣第２９６分公司,新北市永和區中和路417、419號,1,121.5091974,25.0006993
22555003,統一超商股份有限公司,16434811,台北縣第三○○分公司,新北市3重區自強路4段102、104號,1,121.4912675,25.0798135
22555003,統一超商股份有限公司,16434827,新竹縣第１９分公司,新竹縣竹東鎮東寧路2段188號,3,121.0887707,24.7333671
22555003,統一超商股份有限公司,16434832,台中巿第一二七分公司,臺中市西區臺灣大道2段90、92、96號,3,120.6719324,24.1493624
22555003,統一超商股份有限公司,16434848,台中巿第一二八分公司,臺中市北區太原路1段492號地下第1層、忠明8街1號,1,120.6706705,24.1648621
22555003,統一超商股份有限公司,16434903,台南縣第６０分公司,臺南市安定區保西村2鄰339之1號,3,120.2463276,23.1228575
22555003,統一超商股份有限公司,16434919,台南縣第６１分公司,臺南市仁德區中正路2段1052號,1,120.2528271,22.9681958
22555003,統一超商股份有限公司,16434925,高雄市第四六三分公司,高雄市茄萣區白雲村茄萣路2段403號,1,120.1836449,22.9064942
22555003,統一超商股份有限公司,16434930,高雄縣第六十九分公司,高雄市梓官區大舍東路7巷1號,3,120.2617122,22.7473587
22555003,統一超商股份有限公司,16434946,高雄市第三五七分公司,高雄市大寮區自由路1、1–1號,1,120.3887029,22.6144587
22555003,統一超商股份有限公司,16434951,台北縣第２９８分公司,新北市新莊區中平路192號,3,121.444981,25.048234
22555003,統一超商股份有限公司,16434967,台北縣第２９９分公司,臺北縣樹林鎮樹西里7鄰中山路1段172號,3,121.4217947,24.9888937
22555003,統一超商股份有限公司,16435543,彰化縣第３９分公司,彰化縣埔心鄉員鹿路1段213號,3,120.5581461,23.9552072
22555003,統一超商股份有限公司,16435558,台北巿第３６４分公司,臺北市中山區長春路67號,1,121.5265302,25.0550438
22555003,統一超商股份有限公司,16436156,台北縣第３０２分公司,新北市汐止區茄苳里茄苳路196號,1,121.6701773,25.0690607
22555003,統一超商股份有限公司,16436162,台南縣第６２分公司,臺南市新營區延平路65、67號,3,120.3135743,23.3006763
22555003,統一超商股份有限公司,16436331,基隆市第２２分公司,基隆市安樂區基金3路80、80-1號,1,121.6959161,25.1568014
22555003,統一超商股份有限公司,16436347,台北縣第３０１分公司,新北市3重區福德里成功路106、106–2號,1,121.487412,25.051455
22555003,統一超商股份有限公司,16436352,台北巿第３６５分公司,臺北市信義區大仁里8鄰林口街48號,1,121.579637,25.03919
22555003,統一超商股份有限公司,16436509,台北巿第３６６分公司,臺北市北投區振興街31號,1,121.5223145,25.1179988
22555003,統一超商股份有限公司,16436515,台北縣第３０３分公司,新北市新店區安忠路65巷2號,3,121.5114441,24.9576568
22555003,統一超商股份有限公司,16436521,桃園縣第１０９分公司,桃園市蘆竹區南崁路2段66–2號,3,121.2796174,25.0578624
22555003,統一超商股份有限公司,16436536,苗栗縣第１５分公司,苗栗縣竹南鎮竹南里十1鄰博愛街53號,3,120.8778622,24.6866806
22555003,統一超商股份有限公司,16436711,台北巿第３６７分公司,臺北市北投區公館路31號1,1,121.5031447,25.1330976
22555003,統一超商股份有限公司,16436727,台北巿第３６８分公司,臺北市士林區士東路200巷21號,3,121.5338377,25.1118557
22555003,統一超商股份有限公司,16436780,苗栗縣第１４分公司,苗栗縣苑裡鎮房裡里南房63–9號,3,120.6461227,24.4325034
22555003,統一超商股份有限公司,16436796,台東縣第７分公司,臺東縣大武鄉大武村復興路8號,3,120.9078001,22.3646506
22555003,統一超商股份有限公司,16437535,台北縣第３０４分公司,新北市板橋區中山路2段316號,3,121.480099,25.0190789
22555003,統一超商股份有限公司,16437562,台南縣第六十三分公司,臺南市關廟區南花村中正路881號,1,120.331509,22.9617436
22555003,統一超商股份有限公司,16437578,高雄巿第１７１分公司,高雄市新興區開平里7賢1路290、292、294號,3,120.3091164,22.6342553
22555003,統一超商股份有限公司,16437752,宜蘭縣第１５分公司,宜蘭縣宜蘭市泰山路212號,1,121.738131,24.751686
22555003,統一超商股份有限公司,16437768,台南縣第６４分公司,臺南市永康區西勢里富強路1段282號,3,120.2754692,23.0192439
22555003,統一超商股份有限公司,16437774,屏東縣第三十四分公司,屏東縣恆春鎮城南里中正路67號,1,120.7446324,22.0029359
22555003,統一超商股份有限公司,16437845,基隆巿第２３分公司,基隆市樂利3街3巷21號,3,121.7174872,25.130068
22555003,統一超商股份有限公司,16437850,台北縣第３０５分公司,新北市中和區民享街38、38-1號,1,121.473866,25.0029281
22555003,統一超商股份有限公司,16437866,桃園縣第１１０分公司,桃園市中壢區中山路120號,3,121.225539,24.955751
22555003,統一超商股份有限公司,16437872,花蓮縣第６分公司,花蓮縣花蓮市國聯里2鄰國聯5路47、49號,3,121.5943899,24.0066145
22555003,統一超商股份有限公司,16437922,台中市第一二九分公司,臺中市北屯區東山路1段212號,1,120.6993312,24.1709445
22555003,統一超商股份有限公司,16437937,台中縣第九十一分公司,臺中市神岡區中山路1392號,3,120.6637905,24.2584025
22555003,統一超商股份有限公司,16438210,基隆巿第二十四分公司,基隆市中山區復興路193、195、197號,1,121.726261,25.1462039
22555003,統一超商股份有限公司,16438226,高雄縣第７１分公司,高雄市鳳山區崗山北街41號,3,120.3377328,22.6102968
22555003,統一超商股份有限公司,16438437,台北巿第３６９分公司,臺北市信義區新仁里24鄰東興路57號,1,121.566457,25.047321
22555003,統一超商股份有限公司,16438443,基隆巿第２５分公司,基隆市仁愛區仁5路63號,1,121.740107,25.1276609
22555003,統一超商股份有限公司,16438458,桃園縣第１１１分公司,桃園市楊梅區梅溪里十4鄰中山北路1段368號,3,121.1730346,24.9105975
22555003,統一超商股份有限公司,16438823,屏東縣第３５分公司,屏東縣潮州鎮新生里中正路1號,1,120.5385105,22.5515209
22555003,統一超商股份有限公司,16438838,屏東縣第３６分公司,屏東縣林邊鄉中山路312號,1,120.5127151,22.4373747
22555003,統一超商股份有限公司,16438844,高雄巿第１７２分公司,高雄市前鎮區盛興里1心2路206號,3,120.3066126,22.613248
22555003,統一超商股份有限公司,16438957,台南縣第６５分公司,臺南市白河區永安里中正路93號,3,120.412429,23.349419
22555003,統一超商股份有限公司,16438963,高雄縣第７２分公司,高雄市岡山區岡山里岡山路7號,3,120.296613,22.7863472
22555003,統一超商股份有限公司,16439251,台中巿第一三０分公司,臺中市北屯區松竹里崇德6路15號,1,120.685905,24.18069
22555003,統一超商股份有限公司,16439267,台中縣第９２分公司,臺中市太平區永成北路153號,3,120.714907,24.1180219
22555003,統一超商股份有限公司,16439273,台南巿第１０８分公司,臺南市北區國姓里西門路4段2號,1,120.2057783,23.0056317
22555003,統一超商股份有限公司,16439288,台東縣第８分公司,臺東縣臺東市文化里中山路298–1，298–2號,3,121.1500312,22.7549258
22555003,統一超商股份有限公司,16439371,基隆市第二十六分公司,基隆市仁愛區成功1路115、117號,1,121.737043,25.1274123
22555003,統一超商股份有限公司,16439386,台北縣第３０６分公司,臺北縣汐止鎮仁愛路十7號,3,121.65869,25.064261
22555003,統一超商股份有限公司,16439392,台北縣第３０７分公司,新北市樹林區中華路120號,1,121.4177915,24.9806484
22555003,統一超商股份有限公司,16439409,桃園縣第１１２分公司,桃園市蘆竹區長榮路1號,3,121.2892059,25.0573214
22555003,統一超商股份有限公司,16439739,桃園縣第１１３分公司,桃園市桃園區成功路2段165號,3,121.319168,24.9950418
22555003,統一超商股份有限公司,16439745,桃園縣第１１４分公司,桃園市中壢區龍岡路3段622號,3,121.2415125,24.9284106
22555003,統一超商股份有限公司,16439750,屏東縣第３７分公司,屏東縣屏東市瑞光里香楊巷59-12號,1,120.512027,22.6638254
22555003,統一超商股份有限公司,16439816,台中市第１３１分公司,臺中市東區復興路4段171、173號,3,120.686622,24.136244
22555003,統一超商股份有限公司,16439822,台南市第一０九分公司,臺南市北區大和路215號,3,120.1898059,23.0132866
22555003,統一超商股份有限公司,16440068,台北巿第３７０分公司,臺北市大興街48號,3,121.4995485,25.1301499
22555003,統一超商股份有限公司,16440074,台北縣第三０八分公司,新北市深坑區文化街82號,1,121.6177932,25.0020519
22555003,統一超商股份有限公司,16440089,台北縣第３０９分公司,新北市新店區民權路96號,1,121.5366928,24.9830178
22555003,統一超商股份有限公司,16440095,台東縣第９分公司,臺東縣臺東市豐谷里中華路2段806號,3,121.1256821,22.7384003
22555003,統一超商股份有限公司,16440166,新竹巿第４１分公司,新竹市舊社里1鄰湳雅街214–1、216號,3,120.975864,24.821996
22555003,統一超商股份有限公司,16440172,新竹巿第４０分公司,新竹市延平路1段252號,1,120.9530692,24.8051655
22555003,統一超商股份有限公司,16440187,新竹巿第三十九分公司,新竹市科學園路45號,1,121.010503,24.785733
22555003,統一超商股份有限公司,16440193,新北市第三一０分公司,新北市中和區景安路100、102、104號,1,121.5054379,24.9956897
22555003,統一超商股份有限公司,16440481,桃園縣第１１５分公司,桃園市桃園區大有路561號,3,121.3167604,25.0154034
22555003,統一超商股份有限公司,16440497,苗栗縣第１６分公司,苗栗縣3義鄉廣盛村2鄰中正路118號,1,120.770754,24.415672
22555003,統一超商股份有限公司,16440503,台中巿第１３２分公司,臺中市西屯區西屯路2段256巷8、10號,1,120.6475325,24.1710771
22555003,統一超商股份有限公司,16440927,雲林縣第２５分公司,雲林縣東勢鄉東南村十鄰東勢東路84號,1,120.254961,23.674895
22555003,統一超商股份有限公司,16440932,台南縣第６６分公司,臺南市永康區埔園里中山路9號,1,120.2569624,23.026692
22555003,統一超商股份有限公司,16440948,台南縣第六十七分公司,臺南市永康區永大路2段275號,3,120.262318,23.00944
22555003,統一超商股份有限公司,16441171,宜蘭縣第１６分公司,宜蘭縣蘇澳鎮蘇北里3鄰中山路74、76號,1,121.8462979,24.6009142
22555003,統一超商股份有限公司,16441186,新北市第三一一分公司,新北市土城區學府路1段28號,1,121.4583118,24.9886098
22555003,統一超商股份有限公司,16441192,桃園縣第１１６分公司,桃園市桃園區經國路405號,1,121.304858,25.017527
22555003,統一超商股份有限公司,16441377,桃園縣第１１７分公司,桃園市大園區大觀路604、606號,1,121.1756082,25.0622213
22555003,統一超商股份有限公司,16441382,台北縣第３１２分公司,新北市3重區大智街240號,3,121.4893839,25.0730059
22555003,統一超商股份有限公司,16441398,南投縣第十八分公司,南投縣竹山鎮大明路291號,3,120.6822851,23.7594374
22555003,統一超商股份有限公司,16441735,台北縣第３１６分公司,新北市新店區安成街29、35號,1,121.5099064,24.9610792
22555003,統一超商股份有限公司,16441741,苗栗縣第１７分公司,苗栗縣苗栗市中正路905號,3,120.8161004,24.5516617
22555003,統一超商股份有限公司,16441756,台中市第三○一分公司,臺中市豐原區向陽路186號,3,120.7257283,24.2521664
22555003,統一超商股份有限公司,16442122,台北縣第３１５分公司,臺北縣樹林鎮復興路278．278–1號,3,121.4179072,24.9882808
22555003,統一超商股份有限公司,16442137,台北縣第３１４分公司,新北市土城區頂福里中央路4段290號,3,121.4142278,24.9564743
22555003,統一超商股份有限公司,16442143,台北縣第３１３分公司,新北市板橋區南雅南路1段8–2號,1,121.456094,25.0067101
22555003,統一超商股份有限公司,16442158,南投縣第１９分公司,南投縣南投市中正路220–十4．220–十6號,3,120.6936141,23.9463838
22555003,統一超商股份有限公司,16442164,南投縣第２０分公司,南投縣埔里鎮信義路961號,3,120.9591698,23.9716038
22555003,統一超商股份有限公司,16442170,台南縣第６８分公司,臺南市新市區永就村中華路53巷9號,1,120.2944894,23.0644168
22555003,統一超商股份有限公司,16442235,台北縣第３１８分公司,新北市板橋區國泰里實踐路23．25號、27巷1,3,121.463742,25.0073505
22555003,統一超商股份有限公司,16442241,桃園縣第一一九分公司,桃園市大園區?林里3民路2段110、112、114號,1,121.2597753,25.0791383
22555003,統一超商股份有限公司,16442559,台北巿第３７１分公司,臺北市南港區興華路117、119、121、123、125號,1,121.6057148,25.0568892
22555003,統一超商股份有限公司,16442565,花蓮縣第７分公司,花蓮縣花蓮市國威里8鄰中山路266．268號,3,121.6067558,23.980455
22555003,統一超商股份有限公司,16442571,台北縣第三一七分公司,新北市林口區粉寮路1段84號,3,121.3961175,25.0760104
22555003,統一超商股份有限公司,16442586,桃園縣第１１８分公司,桃園市平鎮區陸橋南路123號,3,121.1879983,24.9235109
22555003,統一超商股份有限公司,16442946,高雄巿第１７３分公司,高雄市3民區寶龍里正興路3號,1,120.3229934,22.6460195
22555003,統一超商股份有限公司,16442951,高雄縣第７３分公司,高雄市岡山區岡山里岡山路508號,3,120.2945986,22.800312
22555003,統一超商股份有限公司,16442967,高雄縣第７４分公司,高雄市橋頭區隆豐路298號,3,120.3083899,22.7524714
22555003,統一超商股份有限公司,16443059,高雄巿第１７４分公司,高雄市苓雅區安祥里6合路6號,1,120.319389,22.633591
22555003,統一超商股份有限公司,16443065,屏東縣第３８分公司,屏東縣枋寮鄉中山路2段291號,3,120.5946537,22.3854609
22555003,統一超商股份有限公司,16443071,台北縣第３１９分公司,新北市新店區安民街72號,1,121.5166043,24.9666332
22555003,統一超商股份有限公司,16443086,桃園縣第一二一分公司,桃園市大園區竹圍里竹圍街45-3號,1,121.2432291,25.1046496
22555003,統一超商股份有限公司,16443092,桃園縣第１２０分公司,桃園市龍潭區中正路472、474號,1,121.2189453,24.8576233
22555003,統一超商股份有限公司,16443157,台北巿第３７２分公司,臺北市南港區忠孝東路6段276號,1,121.5890698,25.0491015
22555003,統一超商股份有限公司,16443163,台北巿第３７３分公司,臺北市信義區6藝里24鄰永吉路180巷67弄5號,3,121.571423,25.044686
22555003,統一超商股份有限公司,16443179,雲林縣第２６分公司,雲林縣斗南鎮大同路135號,1,120.4747157,23.6793012
22555003,統一超商股份有限公司,16443369,花蓮縣第８分公司,花蓮縣花蓮市國治里十1鄰中正路569號,3,121.6078172,23.9776588
22555003,統一超商股份有限公司,16443375,新北市第三二０分公司,新北市新店區安和里安民街335、337、339號,1,121.5172397,24.9748014
22555003,統一超商股份有限公司,16443380,台中巿第一三三分公司,臺中市西屯區光明路34–28號,1,120.638325,24.177949
22555003,統一超商股份有限公司,16443396,台南巿第１１０分公司,臺南市南區郡南里中華南路2段2號,3,120.1952798,22.96249
22555003,統一超商股份有限公司,16443945,彰化縣第四十分公司,彰化縣員林市中正路160．162號,3,120.5754039,23.9530521
22555003,統一超商股份有限公司,16443950,台南縣第６９分公司,臺南市歸仁區看東村1鄰中山路1段301號,1,120.2858846,22.9519268
22555003,統一超商股份有限公司,16444563,花蓮縣第９分公司,花蓮縣吉安鄉吉安村中山路3段2號,1,121.5580227,23.9852781
22555003,統一超商股份有限公司,16444579,台中巿第１３４分公司,臺中市南屯區河南路443號,3,120.643252,24.1700949
22555003,統一超商股份有限公司,16444584,台中巿第一三五分公司,臺中市東區十甲路397號,1,120.7076865,24.144607
22555003,統一超商股份有限公司,16444634,高雄巿第１７５分公司,高雄市前鎮區良和里民權2路78號,3,120.31072,22.606281
22555003,統一超商股份有限公司,16444640,高雄巿第１７６分公司,高雄市前鎮區明禮里草衙1路106號,3,120.322269,22.584108
22555003,統一超商股份有限公司,16444682,台中縣第９４分公司,臺中市豐原區南嵩里4鄰水源路十5號,3,120.728649,24.254833
22555003,統一超商股份有限公司,16444698,彰化縣第四十一分公司,彰化縣北斗鎮中山路1段330號,3,120.520092,23.876043
22555003,統一超商股份有限公司,16444705,高雄巿第１７分公司,高雄市苓雅區5福里建國1路208號,1,120.3716952,22.6347635
22555003,統一超商股份有限公司,16444711,屏東縣第三十九分公司,屏東縣萬丹鄉萬全村萬丹路1段366、368號,1,120.488939,22.584087
22555003,統一超商股份有限公司,16444769,台北縣第３２２分公司,新北市永和區秀林里永元路93號,1,121.522322,25.0017
22555003,統一超商股份有限公司,16444775,新北市第三二一分公司,新北市5股區工商路150、152號,1,121.4333015,25.0873818
22555003,統一超商股份有限公司,16444780,桃園縣第一二二分公司,桃園市中壢區吉林2路83巷30、32、34號,1,121.2476965,24.9831631
22555003,統一超商股份有限公司,16444796,新竹巿第４２分公司,新竹市光華1街2號、光華東街33號,3,120.9743961,24.814556
22555003,統一超商股份有限公司,16445330,台北縣第３２３分公司,新北市淡水區自強路88–1號,3,121.462893,25.128571
22555003,統一超商股份有限公司,16445346,嘉義縣第１４分公司,嘉義縣民雄鄉西安村22鄰西安路37、39號,1,120.4275426,23.5565173
22555003,統一超商股份有限公司,16445351,屏東縣第４０分公司,屏東縣高樹鄉長榮村興中路193、195號,1,120.5993115,22.8236397
22555003,統一超商股份有限公司,16445710,台北縣第３２４分公司,新北市樹林區復興路1號,1,121.4228923,24.9949054
22555003,統一超商股份有限公司,16445726,台東縣第十分公司,臺東縣臺東市中興路2段424號,3,121.1245566,22.7690104
22555003,統一超商股份有限公司,16445731,屏東縣第４１分公司,屏東縣屏東市復興路258號、建國路3號,1,120.487786,22.663044
22555003,統一超商股份有限公司,16446366,桃園縣第１２３分公司,桃園市桃園區中正路455號,1,121.3066957,25.0013942
22555003,統一超商股份有限公司,16446372,桃園縣第１２４分公司,桃園市龍潭區民族路168、170、172號,1,121.2356756,24.8414191
22555003,統一超商股份有限公司,16446387,新竹縣第２０分公司,新竹縣竹東鎮中豐路2段245號,1,121.0914762,24.7235015
22555003,統一超商股份有限公司,16446393,苗栗縣第１８分公司,苗栗縣公館鄉大同路142、144號,3,120.8284506,24.5018411
22555003,統一超商股份有限公司,16446534,基隆巿第二十七分公司,基隆市安樂區麥金路十2號,3,121.7211593,25.1220299
22555003,統一超商股份有限公司,16446540,台北巿第３７４分公司,臺北市北投區知行路208–2號,3,121.466859,25.119359
22555003,統一超商股份有限公司,16446555,台北巿第三七五分公司,臺北市北投區石牌路2段335號,3,121.5243868,25.1227836
22555003,統一超商股份有限公司,16446561,台北縣第３２５分公司,新北市中和區民德路126、126–1號,1,121.4687397,25.0009965
22555003,統一超商股份有限公司,16446817,台北縣第３２６分公司,新北市蘆洲區中正路261號,1,121.467417,25.087215
22555003,統一超商股份有限公司,16446823,台東縣第１１分公司,臺東縣關山鎮里?I里民族路53–1號,3,121.1628562,23.0449177
22555003,統一超商股份有限公司,16446838,台東縣第１２分公司,臺東縣成功鎮民權路十4號,3,121.3783873,23.1010031
22555003,統一超商股份有限公司,16446844,屏東縣第４２分公司,屏東縣恆春鎮墾丁里墾丁路333號,1,120.7948349,21.9458043
22555003,統一超商股份有限公司,16446915,新北市第三二七分公司,新北市蘆洲區永平街32巷12弄1、3號,1,121.459289,25.0915441
22555003,統一超商股份有限公司,16446921,台北縣第３２８分公司,新北市中和區秀景里自立路193號,3,121.52411,24.9913829
22555003,統一超商股份有限公司,16446936,台中縣第９５分公司,臺中市大甲區文武里育英路283號,3,120.618939,24.354169
22555003,統一超商股份有限公司,16447029,花蓮縣第１０分公司,花蓮縣新城鄉北埔村光復路462號,1,121.6051569,24.0360213
22555003,統一超商股份有限公司,16447034,花蓮縣第１１分公司,花蓮縣花蓮市中山路426號,1,121.6012362,23.9876482
22555003,統一超商股份有限公司,16447463,嘉義縣第十六分公司,嘉義縣水上鄉水頭村中興路378、380號,1,120.4008075,23.4308573
22555003,統一超商股份有限公司,16447479,台南巿第２１分公司,臺南市北區正風里十6鄰長榮路5段448號,1,120.2136833,23.0133151
22555003,統一超商股份有限公司,16447484,高雄市第九十九分公司,高雄市鳳山區武松里1鄰建國路2段2號,1,120.3636725,22.6354273
22555003,統一超商股份有限公司,16447512,台北縣第３２９分公司,新北市永和區保生路22巷2號,1,121.5069531,25.0077806
22555003,統一超商股份有限公司,16447528,高雄巿第２９分公司,高雄市鼓山區鼓山2路107號,3,120.2813637,22.6357921
22555003,統一超商股份有限公司,16447858,宜蘭縣第１７分公司,宜蘭縣礁溪鄉德陽村中正路272號,3,121.7673426,24.8186072
22555003,統一超商股份有限公司,16447864,台北巿第３７６分公司,臺北市文山區景行里景文街96、98號,1,121.5410017,24.9902314
22555003,統一超商股份有限公司,16447870,桃園縣第１２５分公司,桃園市中壢區中央東路62號,1,121.2254414,24.9564471
22555003,統一超商股份有限公司,16447885,台中巿第一三六分公司,臺中市西屯區福瑞里福科路942、940號,3,120.606139,24.187586
22555003,統一超商股份有限公司,16448174,台南縣第７１分公司,臺南市官田區隆田村十4鄰文化街130號,1,120.31811,23.195897
22555003,統一超商股份有限公司,16448189,台南市第一五八分公司,臺南市新化區觀音里中正路553、557號,1,120.307126,23.0382029
22555003,統一超商股份有限公司,16448195,台南巿第１１１分公司,臺南市安平區石門里安北路十8號,3,120.1656704,23.0014514
22555003,統一超商股份有限公司,16448202,嘉義縣第１５分公司,嘉義縣民雄鄉東榮村4鄰建國路1段134號,1,120.433981,23.557178
22555003,統一超商股份有限公司,16448364,台北巿第３７７分公司,臺北市玉成街154號,3,121.5837982,25.0450358
22555003,統一超商股份有限公司,16448370,台北巿第３７８分公司,臺北市永吉路325號,3,121.575739,25.045662
22555003,統一超商股份有限公司,16448435,高雄市第三五九分公司,高雄市大寮區山頂村內厝路219號,1,120.389702,22.6083526
22555003,統一超商股份有限公司,16448441,屏東縣第４３分公司,屏東縣屏東市龍華里龍華路152、156號,1,120.4826437,22.6359459
22555003,統一超商股份有限公司,16448462,嘉義縣第十七分公司,嘉義縣布袋鎮興中里上海路219號,3,120.1606443,23.3789345
22555003,統一超商股份有限公司,16448483,台南巿第６８分公司,臺南市北區大豐里文賢路315號,1,120.1934348,23.0067817
22555003,統一超商股份有限公司,16448667,台北縣第３３１分公司,新北市淡水區中正路57、59號,1,121.4417308,25.169469
22555003,統一超商股份有限公司,16448673,台北巿第３７９分公司,臺北市中山區合江街117號,1,121.5393178,25.0603401
22555003,統一超商股份有限公司,16448836,雲林縣第２７分公司,雲林縣崙背鄉7鄰南光路3號,1,120.3533371,23.7592936
22555003,統一超商股份有限公司,16448842,雲林縣第２８分公司,雲林縣莿桐鄉中正路72號,3,120.5107996,23.7473109
22555003,統一超商股份有限公司,16448857,台南縣第７２分公司,臺南市仁德區田厝村1鄰中正路1段527．529號,1,120.242423,22.9399
22555003,統一超商股份有限公司,16448863,台南縣第７３分公司,臺南市善化區小新里成功路2–2號,1,120.3191522,23.1273164
22555003,統一超商股份有限公司,16449173,台中縣第九十七分公司,臺中市大里區東榮路282號,1,120.686093,24.110586
22555003,統一超商股份有限公司,16449188,彰化縣第四十二分公司,彰化縣芳苑鄉斗苑路頂後段55．57號,3,120.3454237,23.907561
22555003,統一超商股份有限公司,16449194,台北縣第３３２分公司,新北市土城區頂埔里中央路4段64．66號,3,121.4195556,24.9601585
22555003,統一超商股份有限公司,16449292,台中市第一三七分公司,臺中市西屯區文心路3段560號,3,120.6667188,24.1728067
22555003,統一超商股份有限公司,16449309,南投縣第２１分公司,南投縣埔里鎮中山路2段196號、北環路99號,3,120.970278,23.9679939
22555003,統一超商股份有限公司,16449498,桃園第一二六分公司,桃園市中壢區實踐路35號,3,121.242169,24.954158
22555003,統一超商股份有限公司,16449504,新竹市第四十三分公司,新竹市東區民生路149、151、153號,1,120.9764667,24.8107423
22555003,統一超商股份有限公司,16449510,台北縣第三三０分公司,新北市中和區仁和里連城路469巷7號,3,121.4836952,24.9957347
22555003,統一超商股份有限公司,16449526,台中縣第九十六分公司,臺中市東勢區東關路640之23號,3,120.8323333,24.2457149
22555003,統一超商股份有限公司,16449595,新北市第三三三分公司,新北市中和區中正路778號,1,121.4853865,25.0005575
22555003,統一超商股份有限公司,16449602,台北縣第三三四分公司,新北市新店區中興路1段252號,1,121.5460989,24.9767887
22555003,統一超商股份有限公司,16449618,桃園縣第一二七分公司,桃園市中壢區健行路255號,3,121.2285924,24.9471626
22555003,統一超商股份有限公司,16449639,屏東縣第四十四分公司,屏東縣鹽埔鄉維新路134-3、134-6、136號,1,120.5576728,22.7420288
22555003,統一超商股份有限公司,16449645,屏東縣第四十五分公司,屏東縣屏東市大連里廣東路280、280之1號,1,120.5011205,22.6771965
22555003,統一超商股份有限公司,16450136,台北市第三八０分公司,臺北市中正區襄陽路7號,3,121.5159368,25.043469
22555003,統一超商股份有限公司,16450620,台北市第三八三分公司,臺北市北投區光明路121號,1,121.5020994,25.1338665
22555003,統一超商股份有限公司,16450635,新竹縣第二十一分公司,新竹縣竹東鎮長春路3段253號,1,121.0820071,24.7451936
22555003,統一超商股份有限公司,16450641,台北縣第三三五分公司,新北市板橋區廣德里重慶路293號,3,121.463703,24.9991631
22555003,統一超商股份有限公司,16450852,花蓮縣第十二分公司,花蓮縣吉安鄉永安村8鄰明義1街2號,3,121.6031714,23.9787988
22555003,統一超商股份有限公司,16450868,花蓮縣第１３分公司,花蓮縣吉安鄉仁里村中正路1段41號,3,121.5937657,23.9684558
22555003,統一超商股份有限公司,16450874,台北市第３８１分公司,臺北市信義區吳興街487號,3,121.5697029,25.0235166
22555003,統一超商股份有限公司,16450889,台北市第３８２分公司,臺北市中正區忠孝西路1段49號Ｕ1區Ａ室,3,121.5178642,25.0463846
22555003,統一超商股份有限公司,16631257,高雄市第１７７分公司,高雄市鹽埕區新安里建國4路175號,1,120.2804836,22.6261023
22555003,統一超商股份有限公司,16631329,花蓮縣第１４分公司,花蓮縣花蓮市主力里2鄰中華路327號,3,121.5981265,23.9748548
22555003,統一超商股份有限公司,16631334,台中縣第九十八分公司,臺中市大雅區學府路2○9號,1,120.6507601,24.2162895
22555003,統一超商股份有限公司,16631340,台中縣第九十九分公司,臺中市太平區中興東路189．191號,1,120.722848,24.1319849
22555003,統一超商股份有限公司,16631355,彰化縣第４３分公司,彰化縣和美鎮永樂路2號,3,120.494501,24.1136705
22555003,統一超商股份有限公司,16631427,台北縣第３３６分公司,新北市永和區林森路62號,1,121.523894,25.0041529
22555003,統一超商股份有限公司,16631432,台北縣第３３７分公司,新北市中和區立德街102號,1,121.4870107,25.0082616
22555003,統一超商股份有限公司,16631448,雲林縣第２９分公司,雲林縣斗6市鎮西里雲林路2段627號,1,120.5251028,23.6985692
22555003,統一超商股份有限公司,16631453,台南市第１１２分公司,臺南市安南區理想里海佃路2段432號,3,120.1898607,23.0336363
22555003,統一超商股份有限公司,16631643,高雄市第四八七分公司,高雄市林園區港嘴村沿海路3段237號,1,120.3866616,22.4999849
22555003,統一超商股份有限公司,16632262,台北市第３８４分公司,臺北市松山區南京東路5段139之4、139之8號,1,121.5615599,25.0516824
22555003,統一超商股份有限公司,16632278,桃園縣第１２８分公司,桃園市桃園區寶山街206．208號,3,121.3162593,25.0124381
22555003,統一超商股份有限公司,16632283,桃園縣第１２９分公司,桃園市中壢區環北路537、539、543號,1,121.2289942,24.9647019
22555003,統一超商股份有限公司,16632299,彰化縣第四十四分公司,彰化縣彰化市華山路27號,1,120.542572,24.074341
22555003,統一超商股份有限公司,16632306,台北縣第３３８分公司,新北市新店區北宜路1段28號,1,121.538076,24.956896
22555003,統一超商股份有限公司,16632312,台北縣第３３９分公司,新北市新店區富貴街十2巷1號,3,121.4941008,24.9497297
22555003,統一超商股份有限公司,16632328,新竹縣第２２分公司,新竹縣關西鎮正義路201．203號,3,121.1726076,24.7968192
22555003,統一超商股份有限公司,16632333,苗栗縣第１９分公司,苗栗縣後龍鎮中北街67-3、4號,3,120.7883792,24.6150273
22555003,統一超商股份有限公司,16632903,台北縣第３４０分公司,新北市新莊區中港路132巷26號,1,121.456479,25.0406616
22555003,統一超商股份有限公司,16633641,台北市第３８５分公司,臺北市中山區北安路649號,1,121.54919,25.084047
22555003,統一超商股份有限公司,16633656,台北市第３８６分公司,臺北市大同區民生西路95．97號 ,1,121.5192879,25.0575965
22555003,統一超商股份有限公司,16633662,彰化縣第四十五分公司,彰化縣芬園鄉彰南路4段172號；光復路6號,1,120.6287082,24.015245
22555003,統一超商股份有限公司,16633678,高雄市第４０分公司,高雄市3民區熱河2街17號,1,120.3019192,22.643989
22555003,統一超商股份有限公司,16633699,花蓮縣第１５分公司,花蓮縣新城鄉北埔村7鄰北埔路172號,1,121.6048396,24.0318043
22555003,統一超商股份有限公司,16633749,台北縣第３４１分公司,新北市汐止區臺北縣汐止鎮湖光里明峰街十2．十2-1號,3,121.6293055,25.0705482
22555003,統一超商股份有限公司,16633754,桃園縣第１３０分公司,桃園市龜山區龍壽里萬壽路1段492號,1,121.3979813,25.0173296
22555003,統一超商股份有限公司,16633760,台中市第一三八分公司,臺中市西屯區大隆路171號,3,120.6488037,24.1584465
22555003,統一超商股份有限公司,16633776,南投縣第二十二分公司,南投縣草屯鎮太平路1段221號,1,120.681399,23.960861
22555003,統一超商股份有限公司,16634043,高雄市第４１分公司,高雄市楠梓區錦屏里後昌路115號,1,120.310684,22.718637
22555003,統一超商股份有限公司,16634058,台南市１１３分公司,臺南市東區大廟里北門路1段290號,3,120.2113844,22.9913749
22555003,統一超商股份有限公司,16634064,台南市第１１４分公司,臺南市東區關聖里裕文路1號,3,120.2372445,22.9831029
22555003,統一超商股份有限公司,16634070,台南縣第７４分公司,臺南市新市區新和里7鄰中山路272號,3,120.2887551,23.0662908
22555003,統一超商股份有限公司,16634085,台南縣第７５分公司,臺南市玉井區玉井村十9鄰中正路54號,1,120.4601109,23.1237866
22555003,統一超商股份有限公司,16634091,花蓮縣第１６分公司,花蓮縣花蓮市民享里中美路209號,1,121.6291613,23.995555
22555003,統一超商股份有限公司,16634108,台北縣第３４２分公司,新北市新店區寶興路47號,3,121.5493279,24.9733181
22555003,統一超商股份有限公司,16634114,苗栗縣第２０分公司,苗栗縣頭份市信義路128號,3,120.907311,24.6869812
22555003,統一超商股份有限公司,16634120,嘉義市第３１分公司,嘉義市西區竹圍里十7鄰友愛路271號,3,120.433194,23.485522
22555003,統一超商股份有限公司,16634212,台中市第１３９分公司,臺中市北屯區大連路2段2號、梅川東路4段146號,3,120.681527,24.176262
22555003,統一超商股份有限公司,16634228,台中市第１４０分公司,臺中市南區忠明南路787號,1,120.6608412,24.1234118
22555003,統一超商股份有限公司,16634233,台中市第一四一分公司,臺中市南區工學路108號,1,120.6616797,24.1170074
22555003,統一超商股份有限公司,16634249,台中市第一四二分公司,臺中市西區美村路1段736號,1,120.6615089,24.134265
22555003,統一超商股份有限公司,16634368,台南縣第７６分公司,臺南市永康區東灣里大灣路337號,3,120.2662328,23.0042758
22555003,統一超商股份有限公司,16635373,嘉義縣第１８分公司,嘉義縣水上鄉6鄰柳子林620-4．620-5號 ,3,120.4091899,23.4296609
22555003,統一超商股份有限公司,16635388,高雄市第三八一分公司,高雄市鳥松區大華里26鄰本館路1號,3,120.3465957,22.6475232
22555003,統一超商股份有限公司,16635676,台北縣第３４３分公司,新北市板橋區民享街53號,1,121.4758753,25.0151481
22555003,統一超商股份有限公司,16635747,桃園縣第１３１分公司,桃園市蘆竹區忠孝西路42號,3,121.2919826,25.0440655
22555003,統一超商股份有限公司,16636112,雲林縣第３０分公司,雲林縣西螺鎮中興里延平路418．420號,1,120.4551174,23.8006679
22555003,統一超商股份有限公司,16636128,台中市第１４３分公司,臺中市中區自由路2段9號,1,120.6804619,24.1385875
22555003,統一超商股份有限公司,16636963,台北縣第３４４分公司,新北市汐止區臺北縣汐止鎮文化里水源路1段280號,3,121.654535,25.059176
22555003,統一超商股份有限公司,16636979,台中縣第一００分公司,臺中市大雅區中清路2段123．125號,3,120.6701831,24.1759717
22555003,統一超商股份有限公司,16636984,台中市第一四四分公司,臺中市東區樂業路259號,1,120.6999578,24.1390033
22555003,統一超商股份有限公司,16636990,嘉義市第３２分公司,嘉義市東區大街里十4鄰中山路225號,3,120.452641,23.480202
22555003,統一超商股份有限公司,16637007,台北縣第３４５分公司,新北市新莊區中正路881-3號,3,121.4176196,25.0254948
22555003,統一超商股份有限公司,16637013,台南縣第７７分公司,臺南市白河區白河里十9鄰中山路198號,3,120.4177202,23.3530024
22555003,統一超商股份有限公司,16637029,台東縣第１６分公司,臺東縣臺東市鐵花里中華路1段542號,1,121.1527787,22.753932
22555003,統一超商股份有限公司,16637034,台東縣第１５分公司,臺東縣臺東市民生里更生路270號,1,121.1460978,22.7601816
22555003,統一超商股份有限公司,16637040,台東縣第１４分公司,臺東縣太麻里鄉泰和村6鄰太麻里街130號,3,121.0053633,22.6109376
22555003,統一超商股份有限公司,16637055,台東縣第１３分公司,臺東縣池上鄉大埔村中山路64號,1,121.213276,23.1207498
22555003,統一超商股份有限公司,16637230,苗栗縣第２１分公司,苗栗縣苑裡鎮大同路十9號,3,120.652758,24.4414987
22555003,統一超商股份有限公司,16637246,台南市第１１５分公司,臺南市中西區藥王里臨安路1段128．130號,3,120.1895462,22.9984119
22555003,統一超商股份有限公司,16637251,台南市第１１６分公司,臺南市南區臺南市安南區溪頂里北安路2段122號,1,120.2050713,23.0282487
22555003,統一超商股份有限公司,16637267,台南縣第７８分公司,臺南市麻豆區中興里十1鄰興國路46號,3,120.2477544,23.1792153
22555003,統一超商股份有限公司,16637273,台北市第３８７分公司,臺北市松山區上壽里21鄰撫遠街十7-1號,3,121.5660239,25.0634388
22555003,統一超商股份有限公司,16637288,桃園縣第１３２分公司,桃園市中壢區中平路95．97號,3,121.2238293,24.9551821
22555003,統一超商股份有限公司,16637294,桃園縣第１３３分公司,桃園市桃園區復興路80號,1,121.3163102,24.9911002
22555003,統一超商股份有限公司,16637301,桃園縣第１３４分公司,桃園市桃園區重慶街15號、 復興路83、85號,1,121.3143478,24.9906806
22555003,統一超商股份有限公司,16637317,高雄市第６１分公司,高雄市鼓山區西子灣連海路7號,3,120.2667152,22.6175946
22555003,統一超商股份有限公司,16637323,屏東縣第４６分公司,屏東縣林邊鄉仁和村4鄰中山路187號,3,120.5164187,22.4332006
22555003,統一超商股份有限公司,16637822,花蓮縣第十七分公司,花蓮縣吉安鄉建國路1段49、51號,1,121.6068726,23.9826761
22555003,統一超商股份有限公司,16637837,基隆市第２８分公司,基隆市仁愛區南榮路211號,3,121.7430798,25.1231721
22555003,統一超商股份有限公司,16637843,台北縣第３４６分公司,新北市板橋區長江路2段110號,3,121.4653858,25.031569
22555003,統一超商股份有限公司,16637858,南投縣第二十三分公司,南投縣草屯鎮中正路254-10號,1,120.7248103,23.9804207
22555003,統一超商股份有限公司,16637864,高雄市第三九五分公司,高雄市梓官區茄苳村嘉展路370號,1,120.2556354,22.7360056
22555003,統一超商股份有限公司,16638131,花蓮縣第１８分公司,花蓮縣花蓮市國聯3路十6．十8號,1,121.5980782,23.978274
22555003,統一超商股份有限公司,16638147,花蓮縣第１９分公司,花蓮縣花蓮市中山路698號,3,121.595944,23.9946109
22555003,統一超商股份有限公司,16638152,屏東縣第四十七分公司,屏東縣內埔鄉老埤村壽比路742-1號,3,120.595598,22.640316
22555003,統一超商股份有限公司,16638168,台北縣第３４７分公司,新北市新莊區後港1路112號,3,121.428487,25.026865
22555003,統一超商股份有限公司,16638174,台北縣第３４８分公司,新北市3重區中央里文化北路112號,3,121.498362,25.066252
22555003,統一超商股份有限公司,16638189,台北縣第３４９分公司,新北市土城區學府里裕民路185巷1號,3,121.453536,24.9847533
22555003,統一超商股份有限公司,16638646,宜蘭縣第１８分公司,宜蘭縣宜蘭市民族路360號,3,121.7451514,24.7508672
22555003,統一超商股份有限公司,16638651,台中縣第一０一分公司,臺中市潭子區民族路1段42號,1,120.682027,24.2242722
22555003,統一超商股份有限公司,16739721,桃園縣第１３５分公司,桃園市中壢區遠東路77號,3,121.2629358,24.9722351
22555003,統一超商股份有限公司,16739736,彰化縣第四十六分公司,彰化縣2林鎮東和里斗苑路5段115、117號,3,120.3693843,23.9001348
22555003,統一超商股份有限公司,16740240,台北市第３８９分公司,臺北市大同區延平北路2段159．161號,1,121.5115697,25.0582772
22555003,統一超商股份有限公司,16740255,台北縣第３５０分公司,新北市樹林區臺北縣樹林鎮樹福里中山路1段75號,3,121.424247,24.992607
22555003,統一超商股份有限公司,16740261,南投縣第２４分公司,南投縣埔里鎮中山路3段215號,3,120.9608799,23.9677349
22555003,統一超商股份有限公司,16740277,台北市第３８８分公司,臺北市士林區光華路26巷7-1、7-2、7-3號,1,121.541497,25.1369947
22555003,統一超商股份有限公司,16740282,台中市第三一九分公司,臺中市梧棲區4維路73、75號,1,120.536762,24.260999
22555003,統一超商股份有限公司,16740298,台南市第１１７分公司,臺南市南區金華路1段237號,3,120.1899264,22.9672334
22555003,統一超商股份有限公司,16740305,高雄市第１７８分公司,高雄市新興區民權1路253號,3,120.3103525,22.6273267
22555003,統一超商股份有限公司,16740641,台北縣第３５１分公司,新北市鶯歌區國華路31號,1,121.3430068,24.9560925
22555003,統一超商股份有限公司,16740656,新竹市第４４分公司,新竹市東區建功1路56．58號,3,120.9979804,24.7981493
22555003,統一超商股份有限公司,16740662,新竹市第４５分公司,新竹市東區光復路1段272．272-1．272-2號,3,120.999214,24.795071
22555003,統一超商股份有限公司,16740678,台北市第３９０分公司,臺北市信義區基隆路1段145號,3,121.5657619,25.0426207
22555003,統一超商股份有限公司,16740683,台北縣第３５２分公司,新北市汐止區臺北縣汐止鎮中興里中興路190號,1,121.631629,25.0657651
22555003,統一超商股份有限公司,16740699,彰化縣第四十七分公司,彰化縣芳苑鄉2溪路草2段419號,3,120.3819988,23.9536202
22555003,統一超商股份有限公司,16741085,台北縣第３５３分公司,新北市3重區重新路5段609巷十6-十號,3,121.468607,25.04597
22555003,統一超商股份有限公司,16741091,台東縣第１７分公司,臺東縣臺東市自強里更生路391號,1,121.142132,22.7625125
22555003,統一超商股份有限公司,16741732,台北縣第３５４分公司,新北市淡水區民權路119號,3,121.4600987,25.1370708
22555003,統一超商股份有限公司,16741748,新北市第三五五分公司,新北市3重區仁愛街687、689號,1,121.4833189,25.0808939
22555003,統一超商股份有限公司,16741753,苗栗縣第２２分公司,苗栗縣大湖鄉中正路107號,1,120.8660644,24.4227743
22555003,統一超商股份有限公司,16742578,宜蘭縣第１９分公司,宜蘭縣宜蘭市文化里2鄰復興路2段2-1號,3,121.7498251,24.7485486
22555003,統一超商股份有限公司,16742583,新北市第三五六分公司,新北市中和區景平路756、756-1、758-1號,1,121.4964468,25.0047155
22555003,統一超商股份有限公司,16742599,台北縣第３５７分公司,新北市中和區中山路2段380-1號,3,121.4910876,25.0033844
22555003,統一超商股份有限公司,16742606,苗栗縣第二十三分公司,苗栗縣銅鑼鄉中正路173、175、175-1號,1,120.7872903,24.4886101
22555003,統一超商股份有限公司,16742922,屏東縣第四十八分公司,屏東縣屏東市仁愛里廣東路561號,1,120.4980706,22.6835397
22555003,統一超商股份有限公司,16743437,台北市第３９１分公司,臺北市大安區師大路59巷十3號,1,121.529356,25.0239172
22555003,統一超商股份有限公司,16743443,嘉義縣第１９分公司,嘉義縣太保市後潭里十5鄰後潭408之6號,3,120.3438189,23.4520305
22555003,統一超商股份有限公司,16743921,台北縣第３５８分公司,新北市3重區過圳街3號,3,121.489231,25.058652
22555003,統一超商股份有限公司,16743936,桃園縣第１３６分公司,桃園市蘆竹區長春路87號,1,121.2999011,25.0524427
22555003,統一超商股份有限公司,16743942,南投縣第二十五分公司,南投縣竹山鎮集山路3段73、73-1號,1,120.705314,23.765595
22555003,統一超商股份有限公司,16743957,高雄市第三四三分公司,高雄市岡山區壽天里壽天路37-3號,1,120.2930637,22.7965121
22555003,統一超商股份有限公司,16744581,台南市第１１８分公司,臺南市東區裕農路348-2號,3,120.229413,22.9868665
22555003,統一超商股份有限公司,16744597,台南縣第７９分公司,臺南市永康區南灣里大灣路591號,3,120.2617141,23.0005812
22555003,統一超商股份有限公司,16744604,台南縣第８０分公司,臺南市永康區中華路196號,1,120.2355367,23.0046559
22555003,統一超商股份有限公司,16744647,台北縣第３５９分公司,新北市蘆洲區忠義里中華街8號,3,121.463193,25.0816436
22555003,統一超商股份有限公司,16744652,雲林縣第３１分公司,雲林縣北港鎮華勝里28鄰民樂路39號,1,120.2975627,23.5736922
22555003,統一超商股份有限公司,16744668,高雄市第１７９分公司,高雄市前金區青山大同1路268號 ,1,120.2945362,22.6254162
22555003,統一超商股份有限公司,16744674,高雄市第三六○分公司,高雄市大寮區鳳屏1路446號,3,120.3923635,22.6358025
22555003,統一超商股份有限公司,16745147,新竹市第４６分公司,新竹市中華路2段306．308．310號,3,120.9738932,24.8036146
22555003,統一超商股份有限公司,16745152,苗栗縣第２４分公司,苗栗縣3義鄉勝興村水美315-8-9號,1,120.7632761,24.4015111
22555003,統一超商股份有限公司,16745168,台中市第一四五分公司,臺中市西屯區文心路2段562號,3,120.6469952,24.1570313
22555003,統一超商股份有限公司,16745174,南投縣第二十六分公司,南投縣仁愛鄉仁和路43、45號,1,121.1317585,24.0220832
22555003,統一超商股份有限公司,16745189,雲林縣第３２分公司,雲林縣虎尾鎮西安里林森路2段119號,3,120.429846,23.705879
22555003,統一超商股份有限公司,16745195,雲林縣第３３分公司,雲林縣林內鄉中正路381號,3,120.6131251,23.7553995
22555003,統一超商股份有限公司,16745202,台南縣第８１分公司,臺南市永康區永康里永明街97號,1,120.2606422,23.0248838
22555003,統一超商股份有限公司,16745218,高雄市第１８０分公司,高雄市桂林里中安路626號,3,120.3592604,22.5848452
22555003,統一超商股份有限公司,16745955,台北縣第１１分公司,新北市林口區文化2路1段24．26號,1,121.3648993,25.0674152
22555003,統一超商股份有限公司,16745961,台北縣第３６０分公司,新北市樹林區臺北縣樹林鎮3興里十1鄰龍興街33號,1,121.403108,25.015865
22555003,統一超商股份有限公司,16745977,彰化縣第四十八分公司,彰化縣溪湖鎮員鹿路2段383號,3,120.486142,23.95615
22555003,統一超商股份有限公司,16745982,台南縣第８２分公司,臺南市安定區港南村港口163號,1,120.2311,23.093731
22555003,統一超商股份有限公司,16746574,台北市第１６分公司,臺北市萬華區峨眉街84號,3,121.5040786,25.0441418
22555003,統一超商股份有限公司,16746589,嘉義市第三分公司,嘉義市華南里民族路102號,1,120.459279,23.4769287
22555003,統一超商股份有限公司,16746595,花蓮縣第２０分公司,花蓮縣新城鄉嘉里村嘉里路153、155、157號,1,121.6088723,24.0205519
22555003,統一超商股份有限公司,16746602,基隆市第１７分公司,基隆市信義區東信路5．52號,1,121.767921,25.1278959
22555003,統一超商股份有限公司,16746618,新竹縣第２３分公司,新竹縣湖口鄉鳳凰村十5鄰仁樂路158．160號,3,121.0108747,24.8732282
22555003,統一超商股份有限公司,16747335,桃園縣第５９分公司,桃園市中壢區福州2街409號,3,121.2320253,24.967862
22555003,統一超商股份有限公司,16747341,桃園縣第７７分公司,桃園市楊梅區青山1街2，2-1號,1,121.1776436,24.9228544
22555003,統一超商股份有限公司,16747356,桃園縣第９５分公司,桃園市龜山區新興路243號,3,121.228267,24.9541449
22555003,統一超商股份有限公司,16747779,台中市第１５分公司,臺中市東區富榮街2號,1,120.692224,24.1455301
22555003,統一超商股份有限公司,16747784,台中市第４２分公司,臺中市中區公園路13號,1,120.6842586,24.1423059
22555003,統一超商股份有限公司,16747790,台南市第４分公司,臺南市安南區溪北里安和路1段139號,3,120.214801,23.0271974
22555003,統一超商股份有限公司,16747807,台南市第１１９分公司,臺南市安平區慶平路235號,1,120.177513,22.9966601
22555003,統一超商股份有限公司,16747813,台南縣第６分公司,臺南市新市區中興街162號,1,120.2915277,23.0783247
22555003,統一超商股份有限公司,16747829,台南縣第３３分公司,臺南市永康區蔦松里9鄰中正北路735號,1,120.2623466,23.0467303
22555003,統一超商股份有限公司,16748186,苗栗縣第２５分公司,苗栗縣公館鄉5谷村十5鄰200號,1,120.8183077,24.5251317
22555003,統一超商股份有限公司,16748192,高雄縣第３６分公司,高雄市岡山區程香里介壽東路十號,3,120.3146325,22.7867262
22555003,統一超商股份有限公司,16748209,台北縣第１６分公司,新北市5股區成泰路3段577巷82號,3,121.4495831,25.1038968
22555003,統一超商股份有限公司,16748215,台北縣第１１７分公司,新北市土城區員林里光明街十5號,1,121.4421296,24.973886
22555003,統一超商股份有限公司,16748221,桃園縣第１６分公司,桃園市蘆竹區中正路23號,3,121.2949928,25.0417728
22555003,統一超商股份有限公司,16748236,桃園縣第１３７分公司,桃園市楊梅區新成路97號,1,121.1469147,24.9108021
22555003,統一超商股份有限公司,16749116,高雄市第四○○分公司,高雄市鳳山區國隆里新富路385號,1,120.3485398,22.6159513
22555003,統一超商股份有限公司,16749122,花蓮縣第２１分公司,花蓮縣秀林鄉富世村富世路152．152-1號,1,121.6256641,24.1513838
22555003,統一超商股份有限公司,16749137,台中市第五十一分公司,臺中市北區學士路163．165號、健行路439號,1,120.680786,24.158957
22555003,統一超商股份有限公司,16749143,嘉義市第１５分公司,嘉義市西區湖內里21鄰民生南路598．600號,1,120.4435828,23.4578383
22555003,統一超商股份有限公司,16749158,台南縣第８３分公司,臺南市新化區�~拔里臺南縣新化鎮?惟犐??惟猼L段241號,1,120.3377852,23.053697
22555003,統一超商股份有限公司,16749208,台北縣第１２１分公司,新北市蘆洲區中山1路204號,1,121.473424,25.080912
22555003,統一超商股份有限公司,16749214,桃園縣第１３８分公司,桃園市平鎮區南豐路129．131號,3,121.2075908,24.8999947
22555003,統一超商股份有限公司,16749220,桃園縣第１３９分公司,桃園市桃園區桃鶯路472號,3,121.3243211,24.9737435
22555003,統一超商股份有限公司,16749235,桃園縣第１４０分公司,桃園市桃園區自強路81．83號、中山東路108號,3,121.316,24.996522
22555003,統一超商股份有限公司,16749571,台北市第２２１分公司,臺北市信義區松德路129．131號,3,121.575208,25.037356
22555003,統一超商股份有限公司,16749586,台北市第３６分公司,臺北市中正區杭州南路1段83號,1,121.5258963,25.0402883
22555003,統一超商股份有限公司,16749592,台北市第４５分公司,臺北市大同區酒泉街58．6號,1,121.5157055,25.0719424
22555003,統一超商股份有限公司,16749707,屏東縣第２１分公司,屏東縣屏東市大連里興豐路193號,1,120.5079337,22.6836883
22555003,統一超商股份有限公司,16749713,台南縣第８４分公司,臺南市安定區海寮村海寮段8號,1,120.2335293,23.0814824
22555003,統一超商股份有限公司,16749729,屏東縣第４分公司,屏東縣新埤鄉新埤村中正路72號,1,120.5482118,22.4701155
22555003,統一超商股份有限公司,16749832,台北縣第８１分公司,新北市土城區瑞興里廣興街十1．十3號,3,121.4551647,24.9915699
22555003,統一超商股份有限公司,16749848,台北市第２９６分公司,臺北市士林區克強路8號,3,121.5245557,25.1089278
22555003,統一超商股份有限公司,16749853,台北縣第一三四分公司,新北市中和區秀明里6鄰大勇街25巷1號,1,121.5171568,24.9931733
22555003,統一超商股份有限公司,16749869,新竹市第４７分公司,新竹市北區延平路1段194號,3,120.9557732,24.8048144
22555003,統一超商股份有限公司,16749875,台中市第１６２分公司,臺中市西屯區中工3路6．62號,3,120.6186259,24.1786536
22555003,統一超商股份有限公司,16749880,台中市第四分公司,臺中市清水區董公街56號,1,120.577219,24.2730119
22555003,統一超商股份有限公司,16749896,台中市第一八０分公司,臺中市大里區大峰路167號,1,120.6889321,24.0780589
22555003,統一超商股份有限公司,16749903,台東縣第３分公司,臺東縣臺東市新生里傳廣路483號,3,121.1437707,22.7678732
22555003,統一超商股份有限公司,16749919,高雄市第三四四分公司,高雄市岡山區仁壽里仁壽路106號,1,120.2886372,22.7911014
22555003,統一超商股份有限公司,16749925,澎湖縣第１分公司,澎湖縣馬公市光復里2鄰3民路52號,3,119.5709389,23.5686135
22555003,統一超商股份有限公司,16830782,台中縣第４０分公司,臺中市豐原區南陽路127號,1,120.730435,24.242595
22555003,統一超商股份有限公司,16830798,桃園縣第一四一分公司,桃園市觀音區樹林里14鄰民權路1號,1,121.118259,25.051715
22555003,統一超商股份有限公司,16830805,台北縣第二七七分公司,新北市土城區峰廷里延吉街194號,1,121.4678407,24.9851675
22555003,統一超商股份有限公司,16830811,台北縣第九十分公司,新北市板橋區幸福里新海路138號,1,121.4609806,25.0233604
22555003,統一超商股份有限公司,16831375,基隆市第２９分公司,基隆市7堵區開元路9號,3,121.7140662,25.0962588
22555003,統一超商股份有限公司,16831380,台北縣第三六一分公司,新北市新莊區光明里民安西路232號,1,121.4258597,25.0143828
22555003,統一超商股份有限公司,16831396,澎湖縣第２分公司,澎湖縣馬公市光明里光復路59號,1,119.569826,23.570922
22555003,統一超商股份有限公司,16831403,台南縣第八十五分公司,臺南市歸仁區辜厝村中正南路1段110、112號,1,120.2855868,22.9591692
22555003,統一超商股份有限公司,16831419,高雄市第５２分公司,高雄市苓雅區福隆里武漢街113號,3,120.3276648,22.6204319
22555003,統一超商股份有限公司,16831425,高雄市第６８分公司,高雄市左營區菜公里大中2路617．619號,3,120.30748,22.683215
22555003,統一超商股份有限公司,16831430,高雄市第四四九分公司,高雄市旗山區旗南1路121號,1,120.4786329,22.8829419
22555003,統一超商股份有限公司,16831446,高雄市第四六八分公司,高雄市湖內區湖內里高雄縣湖內鄉湖東村中山路1段229號,1,120.2518131,22.8777505
22555003,統一超商股份有限公司,16831473,屏東縣第２６分公司,屏東縣里港鄉永春村中山路46號1、2樓,1,120.4946756,22.7771691
22555003,統一超商股份有限公司,16831488,屏東縣第４９分公司,屏東縣恆春鎮墾丁里墾丁路2號Ｂ3樓,3,120.8068274,21.9413721
22555003,統一超商股份有限公司,16831494,屏東縣第５０分公司,屏東縣枋寮鄉枋寮村中興路十1號,3,120.5933514,22.3667968
22555003,統一超商股份有限公司,16832199,高雄市第７８分公司,高雄市苓雅區福德3路251號,3,120.326617,22.6265161
22555003,統一超商股份有限公司,16832206,台北市第３３９分公司,臺北市松山區新東街十5巷1號,1,121.5660612,25.0587234
22555003,統一超商股份有限公司,16832212,台北市第３１１分公司,臺北市松山區3民路十號,1,121.5625498,25.0580214
22555003,統一超商股份有限公司,16832228,台北市第２９９分公司,臺北市中山區松江路305號,3,121.5334264,25.0614802
22555003,統一超商股份有限公司,16832233,高雄市第四六四分公司,高雄市茄萣區茄萣路1段350號,1,120.1843016,22.8955522
22555003,統一超商股份有限公司,16832249,台南市第１２０分公司,臺南市東區仁和里7鄰仁和路133號,1,120.234793,22.9695935
22555003,統一超商股份有限公司,16832254,桃園縣第一四三分公司,桃園市蘆竹區南崁路2段473號,1,121.266409,25.062444
22555003,統一超商股份有限公司,16832260,桃園縣第一四二分公司,桃園市蘆竹區大竹路408號,1,121.2657643,25.0199106
22555003,統一超商股份有限公司,16832655,台北市第３９２分公司,臺北市中山區長安東路2段101號,1,121.5350785,25.04856
22555003,統一超商股份有限公司,16832661,台北縣第三六二分公司,新北市土城區中央路1段88號 / 裕民路8-1、10、10-1號,1,121.4469375,24.9889949
22555003,統一超商股份有限公司,16832677,彰化縣第４９分公司,彰化縣彰化市公園路1段335號,1,120.5522706,24.0751214
22555003,統一超商股份有限公司,16833107,新竹縣第２４分公司,新竹縣關西鎮中興路十4號,3,121.1772136,24.7924186
22555003,統一超商股份有限公司,16833113,雲林縣第３４分公司,雲林縣斗6市榴中里石榴路196號,1,120.5876717,23.7260729
22555003,統一超商股份有限公司,16833129,高雄市第１０５分公司,高雄市左營區福山里榮總路105．107號,3,120.3216888,22.6792553
22555003,統一超商股份有限公司,16833134,花蓮縣第２２分公司,花蓮縣光復鄉中正路2段250、252號、花蓮縣光復鄉中正路1段90號,1,121.4538395,23.6520046
22555003,統一超商股份有限公司,16833140,台北市第３９３分公司,臺北市士林區陽明里十6鄰格玫路204號,3,121.5496301,25.1424055
22555003,統一超商股份有限公司,16833155,台北縣第三六三分公司,新北市鶯歌區中正3路93號,1,121.3383533,24.9408824
22555003,統一超商股份有限公司,16833161,桃園縣第１４４分公司,桃園市8德區永豐路414號,3,121.2749626,24.9722266
22555003,統一超商股份有限公司,16833438,花蓮縣第２３分公司,花蓮縣志學村7鄰中山路3段6、8號,1,121.5302486,23.9072795
22555003,統一超商股份有限公司,16833444,台北市第３９４分公司,臺北市士林區中山北路7段十4巷十9號Ｂ,1,121.5306625,25.120866
22555003,統一超商股份有限公司,16833459,台北市第３９５分公司,臺北市羅斯福路6段29、31號,3,121.5400296,24.9998839
22555003,統一超商股份有限公司,16833465,台北縣第３６６分公司,新北市新店區北宜路1段41-1號,1,121.542166,24.953194
22555003,統一超商股份有限公司,16833471,台北縣第３６４分公司,新北市汐止區橋東里臺北縣汐止鎮橋東里23鄰大同路2段687巷3、32號1,3,121.6651481,25.072359
22555003,統一超商股份有限公司,16833486,台北縣第３６５分公司,新北市新店區新和街57號,3,121.5198817,24.9855731
22555003,統一超商股份有限公司,16833492,苗栗縣第２６分公司,苗栗縣苗栗市縣府路82號,3,120.8215896,24.5643715
22555003,統一超商股份有限公司,16833508,嘉義市第３３分公司,嘉義市西區車店里嘉義市車店里2鄰興業西路465號,3,120.4346911,23.467893
22555003,統一超商股份有限公司,16833514,澎湖縣第３分公司,澎湖縣馬公市陽明里5鄰中華路56號,1,119.5715205,23.5701706
22555003,統一超商股份有限公司,16833520,台南縣第８６分公司,臺南市新營區民權路96號、96-1號,1,120.3123538,23.3081505
22555003,統一超商股份有限公司,16833535,台南縣第８７分公司,臺南市永康區埔園里24鄰中正路102號,1,120.2543743,23.03032
22555003,統一超商股份有限公司,16833893,花蓮縣第２４分公司,花蓮縣玉里鎮國武里21鄰中山路2段54號,3,121.3151967,23.332997
22555003,統一超商股份有限公司,16833900,台北市第３９６分公司,臺北市信義區信義路6段十1號,1,121.574942,25.033694
22555003,統一超商股份有限公司,16833916,台北縣第３６７分公司,新北市板橋區廣德里重慶路247號,3,121.4628624,25.0009826
22555003,統一超商股份有限公司,16834099,彰化縣第５０分公司,彰化縣彰化市大埔路405號,1,120.5436554,24.0627752
22555003,統一超商股份有限公司,16834106,金門縣第１分公司,金門縣金湖鎮新市里復興路112、114號,3,118.4148191,24.4420336
22555003,統一超商股份有限公司,16834443,台中市第十三分公司,臺中市沙鹿區4平街58號,1,120.560339,24.2341281
22555003,統一超商股份有限公司,16834458,高雄市第１８１分公司,高雄市鼓山區南屏路527、529號,1,120.3003033,22.6643422
22555003,統一超商股份有限公司,16834773,台北縣第三六八分公司,新北市深坑區北深路3段263號,1,121.5989629,25.0043787
22555003,統一超商股份有限公司,16834788,新竹市第４８分公司,新竹市中華路2段64號,1,120.9810001,24.808314
22555003,統一超商股份有限公司,16834794,台南市第一二一分公司,臺南市安南區州南里長和1街39號,1,120.2143566,23.0631071
22555003,統一超商股份有限公司,16834801,台南縣第八十八分公司,臺南市麻豆區小埤里2鄰苓子林十7號之十3,1,120.2353109,23.1840987
22555003,統一超商股份有限公司,16834936,台北市第三九七分公司,臺北市中正區忠孝西路1段49號地下Ｅ室,3,121.5189853,25.0460292
22555003,統一超商股份有限公司,16834942,台北縣第三六九分公司,新北市中和區景南里景新街467巷22號,1,121.5142519,24.9883879
22555003,統一超商股份有限公司,16834957,新竹縣第二十五分公司,新竹縣竹東鎮東寧路1段1號,1,121.0863777,24.7389275
22555003,統一超商股份有限公司,16834963,台中市第一四六分公司,臺中市西屯區青海路2段321、323、325號,1,120.6408391,24.173452
22555003,統一超商股份有限公司,16834979,台北市第３９９分公司,臺北市中山區松江路268號,3,121.5329457,25.059591
22555003,統一超商股份有限公司,16834984,台北市第３９８分公司,臺北市中正區忠孝西路1段49號Ｂ,3,121.5178642,25.0463846
22555003,統一超商股份有限公司,16834990,台南縣第八十九分公司,臺南市仁德區土庫里臺南縣仁德鄉太子路233號,1,120.2615693,22.9911643
22555003,統一超商股份有限公司,16835230,基隆市第３０分公司,基隆市仁1路275號,3,121.7477,25.128304
22555003,統一超商股份有限公司,16835246,基隆市第３１分公司,基隆市安樂路2段151號,3,121.7237235,25.1209885
22555003,統一超商股份有限公司,16835251,嘉義縣第２０分公司,嘉義縣義竹鄉義竹村十7鄰9之十6號,3,120.2555998,23.3353579
22555003,統一超商股份有限公司,16835267,雲林縣第三十五分公司,雲林縣口湖鄉口湖村中正路1段222號,1,120.1505504,23.5748915
22555003,統一超商股份有限公司,16835560,台北縣第３７０分公司,新北市淡水區民生路54號,1,121.4619346,25.1378758
22555003,統一超商股份有限公司,16835576,台北縣第三七一分公司,新北市淡水區自強路375號,1,121.4646418,25.1334462
22555003,統一超商股份有限公司,16835581,台北縣第３７２分公司,新北市淡水區新春街142號,1,121.4418946,25.1815575
22555003,統一超商股份有限公司,16835597,台北縣第三七三分公司,新北市汐止區新台5路1段149號,1,121.653372,25.0624249
22555003,統一超商股份有限公司,16835604,台北縣第３７４分公司,新北市汐止區橋東里大同路2段687巷88、9號,3,121.6651481,25.072359
22555003,統一超商股份有限公司,16835610,苗栗縣第２７分公司,苗栗縣頭屋鄉尖豐路126號、中山街3號,1,120.850999,24.574938
22555003,統一超商股份有限公司,16835626,高雄市第１８２分公司,高雄市左營區新上里自由2路195號,3,120.308757,22.6607855
22555003,統一超商股份有限公司,16835793,台北市第４００分公司,臺北市中山區民權東路3段22號,3,121.5401118,25.0622427
22555003,統一超商股份有限公司,16835800,台南縣第９０分公司,臺南市善化區光文里光文路十7號,3,120.30997,23.137329
22555003,統一超商股份有限公司,16835999,花蓮縣第２５分公司,花蓮縣花蓮市中山路183、185號,1,121.6095268,23.9766884
22555003,統一超商股份有限公司,16836006,宜蘭縣第２０分公司,宜蘭縣冬山鄉廣興村宜蘭縣冬山鄉廣興里7鄰廣興路196、198號,3,121.7492165,24.6700001
22555003,統一超商股份有限公司,16836012,台北市第４０１分公司,臺北市大安區大安路1段218號,1,121.545894,25.0343323
22555003,統一超商股份有限公司,16836028,台北縣第三七五分公司,新北市新莊區福營里8鄰建國1路5．52號,1,121.433464,25.031878
22555003,統一超商股份有限公司,16836033,台南市第１２２分公司,臺南市北區延平里公園路840號,3,120.2120267,23.0131897
22555003,統一超商股份有限公司,16836049,台南縣第９１分公司,臺南市永康區復華里復國1路297號,3,120.2462306,23.0097851
22555003,統一超商股份有限公司,16836054,台南縣第９２分公司,臺南市仁德區保安村中正路1段246號,3,120.2378381,22.9230957
22555003,統一超商股份有限公司,16836060,高雄市第三七六分公司,高雄市林園區十6鄰林園北路2、2-1號,3,120.3959316,22.50386
22555003,統一超商股份有限公司,16836358,台北市第４０２分公司,臺北市內湖區大湖山莊街219巷6、8號,1,121.599354,25.0885189
22555003,統一超商股份有限公司,16836364,台北縣第三七六分公司,新北市新莊區福興里5工路7號,1,121.4597471,25.0606528
22555003,統一超商股份有限公司,16836370,金門縣第二分公司,金門縣金城鎮民生路6號,1,118.3201287,24.4334333
22555003,統一超商股份有限公司,16836673,台北縣第三七八分公司,新北市土城區立德路7、72號,1,121.4640782,24.9867368
22555003,統一超商股份有限公司,16836688,苗栗縣第二十八分公司,苗栗縣頭份市中正3路271號、親民路1、3號,1,120.9584804,24.6846848
22555003,統一超商股份有限公司,16836694,高雄市第１８３分公司,高雄市3民區興德里中華3路256號,3,120.2938361,22.6353545
22555003,統一超商股份有限公司,16836701,台北縣第三七七分公司,新北市3重區龍門路217、219、221號,1,121.5002451,25.0733643
22555003,統一超商股份有限公司,16836717,台北市第４０３分公司,臺北市中正區羅斯福路3段244巷2-1號,3,121.531256,25.0170629
22555003,統一超商股份有限公司,16836723,台中市第１４７分公司,臺中市北區進化路280號,3,120.694552,24.152491
22555003,統一超商股份有限公司,16836977,台南縣第９４分公司,臺南市永康區埔園里中正路102號,3,120.2543743,23.03032
22555003,統一超商股份有限公司,16836982,高雄市第１８４分公司,高雄市前鎮區瑞昌里瑞隆路310、312號,1,120.332564,22.6056966
22555003,統一超商股份有限公司,16836998,台北市第４０４分公司,臺北市內湖區金龍里金龍路5號,1,121.5950407,25.0844527
22555003,統一超商股份有限公司,16837005,新竹縣第二十六分公司,新竹縣竹東鎮中豐路3段8號,3,121.0861686,24.7272636
22555003,統一超商股份有限公司,16837011,苗栗縣第２９分公司,苗栗縣頭份市中華路1204號,3,120.9139702,24.6914543
22555003,統一超商股份有限公司,16837027,台南縣第九十三分公司,臺南市善化區北關里中山路518號,1,120.288324,23.1327529
22555003,統一超商股份有限公司,16837173,高雄市第１８５分公司,高雄市左營區新下里政德路130．132號,1,120.2994833,22.676301
22555003,統一超商股份有限公司,16837188,台南縣第９５分公司,臺南市學甲區中正路143號,1,120.179483,23.230587
22555003,統一超商股份有限公司,16837194,新竹縣第二十七分公司,新竹縣芎林鄉文山路529、531號,1,121.0776684,24.7771961
22555003,統一超商股份有限公司,16837201,台北市第四０五分公司,臺北市士林區美崙街118號,3,121.5195206,25.097056
22555003,統一超商股份有限公司,16837602,台北縣第３７９分公司,新北市淡水區民族路56號,3,121.4617958,25.1359625
22555003,統一超商股份有限公司,16837618,桃園縣第一四五分公司,桃園市楊梅區校前路241號,1,121.1499732,24.9024115
22555003,統一超商股份有限公司,16837624,嘉義市第３４分公司,嘉義市西區垂楊里嘉義市垂楊里21鄰興業西路268號,3,120.4398939,23.4680173
22555003,統一超商股份有限公司,16837639,雲林縣第３６分公司,雲林縣麥寮鄉橋頭路234號,1,120.2739571,23.7969343
22555003,統一超商股份有限公司,16837645,澎湖縣第４分公司,澎湖縣馬公市長安里中正路83號,3,119.5653851,23.5668993
22555003,統一超商股份有限公司,16837650,高雄市第四四四分公司,高雄市阿蓮區民生路92號,1,120.3275506,22.8825763
22555003,統一超商股份有限公司,16837666,高雄市第三八二分公司,高雄市鳥松區學堂路18、20號,1,120.392418,22.6584504
22555003,統一超商股份有限公司,16837835,嘉義市第三十五分公司,嘉義市東區雲霄里民權路194、196、198號,1,120.4550994,23.4833004
22555003,統一超商股份有限公司,16837841,桃園縣第一四六分公司,桃園市中壢區南園2路63號,1,121.2342295,24.9715791
22555003,統一超商股份有限公司,16837856,宜蘭縣第二十一分公司,宜蘭縣宜蘭市新興路88號,3,121.757911,24.760425
22555003,統一超商股份有限公司,16837960,台北市第４０６分公司,臺北市信義區永春里21鄰松山路225巷2號、227號1,3,121.578075,25.044841
22555003,統一超商股份有限公司,16837976,桃園縣第１４７分公司,桃園市桃園區莊敬路2段99號,3,121.293075,25.022507
22555003,統一超商股份有限公司,16837981,南投縣第２７分公司,南投縣集集鎮吳厝里民生路192號,3,120.7844393,23.8270952
22555003,統一超商股份有限公司,16837997,高雄市第四○一分公司,高雄市鳳山區曹公里曹公路59號,1,120.3570552,22.6292272
22555003,統一超商股份有限公司,16838308,彰化縣第５１分公司,彰化縣芳苑鄉斗苑路芳苑段156-1號,1,120.3220527,23.9228351
22555003,統一超商股份有限公司,16838314,高雄市第１８６分公司,高雄市楠梓區軍校路658號,1,120.292998,22.706758
22555003,統一超商股份有限公司,16838320,高雄市第四三五分公司,高雄市路竹區竹南村中山路832號,3,120.2610665,22.8543748
22555003,統一超商股份有限公司,16838335,台中市第三十四分公司,臺中市沙鹿區南陽路439號,1,120.5711548,24.2162957
22555003,統一超商股份有限公司,16838341,台中市第三十一分公司,臺中市太平區宜昌路400號,1,120.713949,24.144922
22555003,統一超商股份有限公司,16838356,台中市第１４８分公司,臺中市北區錦祥街51號,3,120.6907924,24.1571481
22555003,統一超商股份有限公司,16838362,台北縣第３８０分公司,新北市3芝區中興街1段2、6號,1,121.4973879,25.2581208
22555003,統一超商股份有限公司,16838807,台北市第４０７分公司,臺北市中正區汀州路1段386、388號,3,121.5134963,25.0262267
22555003,統一超商股份有限公司,16838813,台北縣第三八一分公司,新北市汐止區仁愛路143號、臺北縣汐止市福安街51號,1,121.6633501,25.0644673
22555003,統一超商股份有限公司,16838829,彰化縣第５２分公司,彰化縣2林鎮大成路1段571號,1,120.3634629,23.893162
22555003,統一超商股份有限公司,16839117,台北市第４０８分公司,臺北市南京西路十6號Ｂ,3,121.519806,25.052325
22555003,統一超商股份有限公司,16839123,台北市第４０９分公司,臺北市北投區中央北路3段2號,3,121.4867135,25.1384158
22555003,統一超商股份有限公司,16839138,桃園縣第一四八分公司,桃園市8德區中華路157號,1,121.2792022,24.9841218
22555003,統一超商股份有限公司,16839144,桃園縣第一四九分公司,桃園市桃園區壽昌街20巷45、47號,1,121.292297,24.9895361
22555003,統一超商股份有限公司,16839159,台北市第４１０分公司,臺北市捷運淡水線地下街鄭州路至南京西路段Ｍ1　3段Ａ2,3,121.5111067,25.0499502
22555003,統一超商股份有限公司,16839165,台中縣第１０５分公司,臺中市大里區仁化路460、462號,3,120.7034844,24.0960891
22555003,統一超商股份有限公司,16839171,台中市第１４９分公司,臺中市南屯區向心南路928、930號,1,120.6440498,24.1361542
22555003,統一超商股份有限公司,16839186,新竹市第四十九分公司,新竹市東區光復路1段365號,3,121.017434,24.7833011
22555003,統一超商股份有限公司,16839284,彰化縣第５３分公司,彰化縣彰化市民權路245號,3,120.537194,24.0769089
22555003,統一超商股份有限公司,16839290,台南縣第九十六分公司,臺南市佳里區忠孝路212號,1,120.1706849,23.169487
22555003,統一超商股份有限公司,16839307,高雄市第一八七分公司,高雄市楠梓區後昌路722號、慶昌街2-1號,1,120.2968336,22.7098539
22555003,統一超商股份有限公司,16839313,高雄市第三四五分公司,高雄市岡山區後協里柳橋西路41號,3,120.284824,22.790169
22555003,統一超商股份有限公司,16839566,基隆市第三十二分公司,基隆市仁愛區孝3路89、91號,1,121.7396254,25.1306631
22555003,統一超商股份有限公司,16839572,台中縣第一０六分公司,臺中市烏日區中華路565、567號,3,120.6342769,24.1081977
22555003,統一超商股份有限公司,16839587,高雄市第一八八分公司,高雄市鼓山區華泰路183號,3,120.2927413,22.669234
22555003,統一超商股份有限公司,16839778,台中市第四十一分公司,臺中市豐原區鐮村路462號,1,120.7242703,24.2258932
22555003,統一超商股份有限公司,16839783,台中縣第１０８分公司,臺中市梧棲區民生街61、63號,3,120.529824,24.253688
22555003,統一超商股份有限公司,16839926,台北縣第三八四分公司,新北市永和區竹林路146號,3,121.5200532,25.0108083
22555003,統一超商股份有限公司,16839931,新北市第三八五分公司,新北市板橋區瑞安街73、75號,1,121.4555672,25.0213231
22555003,統一超商股份有限公司,16839947,桃園縣第一五０分公司,桃園市龜山區公西里16鄰文化1路42號,1,121.3584517,25.0627441
22555003,統一超商股份有限公司,16839952,台中市第１５０分公司,臺中市南區工學路55、57號,1,120.665752,24.1167633
22555003,統一超商股份有限公司,16839968,花蓮縣第２６分公司,花蓮縣壽豐鄉豐山村中山路190、192號,3,121.495801,23.8490042
22555003,統一超商股份有限公司,16839974,台北市第四一一分公司,臺北市中正區信陽街十1-2號,3,121.5159699,25.0445763
22555003,統一超商股份有限公司,16839989,新北市第三八二分公司,新北市8里區中華路2段292、296號,3,121.4043073,25.1489148
22555003,統一超商股份有限公司,16839995,台北縣第三八三分公司,新北市中和區圓通路293號,1,121.494933,24.9921659
22555003,統一超商股份有限公司,16840402,桃園縣第一五一分公司,桃園市桃園區龍安街77、79、81號,1,121.2802355,24.9886414
22555003,統一超商股份有限公司,16840418,桃園縣第１５２分公司,桃園市大園區中華路67號,3,121.1985832,25.0669738
22555003,統一超商股份有限公司,16840923,台南縣第９７分公司,臺南市永康區鹽行里中正北路122號,1,120.2423153,23.0414215
22555003,統一超商股份有限公司,16840938,台南縣第９８分公司,臺南市善化區坐駕里中正路386號,1,120.2941237,23.1293814
22555003,統一超商股份有限公司,16840944,台中市第一二二分公司,臺中市豐原區圓環東路168、172號,1,120.7191668,24.2430662
22555003,統一超商股份有限公司,16840959,台北縣第三八六分公司,新北市板橋區景星里館前東路十5、十5-1、十7號,1,121.4615323,25.0073895
22555003,統一超商股份有限公司,16841057,高雄市第１８９分公司,高雄市左營區民族1路987號,1,120.319651,22.682919
22555003,統一超商股份有限公司,16841063,花蓮縣第二十七分公司,花蓮縣鳳林鎮中正路2段143、145號,1,121.4932299,23.8429254
22555003,統一超商股份有限公司,16841079,台北市第４１２分公司,臺北市大安區仁愛路4段27巷1號,1,121.5452794,25.0386638
22555003,統一超商股份有限公司,16841084,台北市第４１３分公司,臺北市信義區惠安里吳興街520號,1,121.5688723,25.0221574
22555003,統一超商股份有限公司,16841465,台北縣第三八七分公司,新北市3重區重新路4段45號,1,121.4878581,25.0575884
22555003,統一超商股份有限公司,16841471,桃園縣一五三分公司,桃園市觀音區中山路2段663號,1,121.1361612,25.0129917
22555003,統一超商股份有限公司,16841486,桃園縣第一五四分公司,桃園市中壢區中和路249號,3,121.2233875,24.9534043
22555003,統一超商股份有限公司,16841654,台北市第四一四分公司,臺北市大安區忠孝東路4段216巷68號,1,121.5528852,25.0381262
22555003,統一超商股份有限公司,16841660,台南市第一二三分公司,臺南市東區龍山里十2鄰東門路1段362號,1,120.214314,22.9878449
22555003,統一超商股份有限公司,16841676,台南市第一二四分公司,臺南市北區大豐里和緯路5段76號,1,120.1841996,23.0060826
22555003,統一超商股份有限公司,16841681,台南市第一二五分公司,臺南市東區自強里富農街1段129號,3,120.234479,22.981761
22555003,統一超商股份有限公司,16841970,台北市第四一五分公司,臺北市中正區中華路1段59-十8、59-十9、59-2,3,121.508943,25.045945
22555003,統一超商股份有限公司,16841985,台北縣第三八八分公司,新北市中和區連城路349號,3,121.4880475,24.9960471
22555003,統一超商股份有限公司,16841991,桃園縣第一五五分公司,桃園市大園區中正東路102號,1,121.200714,25.0626614
22555003,統一超商股份有限公司,16842008,台中市第四十四分公司,臺中市太平區樹德路255號,1,120.7124052,24.157478
22555003,統一超商股份有限公司,16842252,台北縣第三八九分公司,新北市3重區忠孝路2段63號,1,121.4849561,25.0706669
22555003,統一超商股份有限公司,16842268,台北縣第三九０分公司,新北市5股區成泰路1段157號,3,121.435196,25.0741941
22555003,統一超商股份有限公司,16842274,台中市第一五一分公司,臺中市北屯區北屯路174、176號,3,120.6945324,24.165184
22555003,統一超商股份有限公司,16842289,南投縣第二十八分公司,南投縣水里鄉民權路170號,1,120.8536604,23.8180816
22555003,統一超商股份有限公司,16842513,台北縣第三九一分公司,新北市淡水區沙崙路133號,1,121.4228002,25.1828212
22555003,統一超商股份有限公司,16842529,苗栗縣第三十分公司,苗栗縣竹南鎮竹南里民族路82號、民權街47號,1,120.8785249,24.6856897
22555003,統一超商股份有限公司,16842534,嘉義縣第二十一分公司,嘉義縣民雄鄉興南村頭橋557-43、557-45、557-46號,1,120.439407,23.523046
22555003,統一超商股份有限公司,16842540,台南縣第九十九分公司,臺南市歸仁區中山路3段1號,3,120.2877843,22.9673468
22555003,統一超商股份有限公司,16843055,台北縣第三九二分公司,新北市中和區中山路2段317之1號,1,121.493903,25.001957
22555003,統一超商股份有限公司,16843061,台北縣第三九三分公司,新北市土城區裕民路57號,1,121.449035,24.9879975
22555003,統一超商股份有限公司,16843077,桃園縣第一五六分公司,桃園市8德區建國路1075號,1,121.2955638,24.9565721
22555003,統一超商股份有限公司,16843082,桃園縣第一五七分公司,桃園市中壢區中央西路2段125號,1,121.2148572,24.959206
22555003,統一超商股份有限公司,16843098,台中市第一五二分公司,臺中市北屯區松安里28鄰松竹路193號,3,120.6952044,24.1830721
22555003,統一超商股份有限公司,16843105,台南市第一二六分公司,臺南市東區崇德路471之3號,3,120.2264911,22.974869
22555003,統一超商股份有限公司,16843111,台南縣第一００分公司,臺南市西港區慶安村新興街25-2號,1,120.2011837,23.1208588
22555003,統一超商股份有限公司,16843127,高雄市第一九０分公司,高雄市前金區長城里中華3路206號,3,120.2946209,22.633024
22555003,統一超商股份有限公司,16843132,高雄縣第九十一分公司,高雄市鳳山區新興里維新路136、138號,3,120.3617853,22.6251778
22555003,統一超商股份有限公司,16843148,屏東縣第五十一分公司,屏東縣潮州鎮3和里延平路89號,1,120.5401715,22.5536514
22555003,統一超商股份有限公司,16843153,屏東縣第五十二分公司,屏東縣恆春鎮南灣里南灣路122號,1,120.76556,21.95993
22555003,統一超商股份有限公司,16843597,桃園縣第一五八分公司,桃園市蘆竹區大竹路565、567號,3,121.2586804,25.0242049
22555003,統一超商股份有限公司,16843604,台中市第一五三分公司,臺中市西區公益路157號,1,120.662807,24.1507239
22555003,統一超商股份有限公司,16843610,台中縣第一一一分公司,臺中市太平區光興路1430號,3,120.733437,24.118393
22555003,統一超商股份有限公司,16843626,台南縣第一０一分公司,臺南市東山區新東路1段27號,3,120.4020279,23.3222669
22555003,統一超商股份有限公司,16843631,高雄市第一九一分公司,高雄市鹽埕區光明里大勇路92號,3,120.2843454,22.6243457
22555003,統一超商股份有限公司,16843647,高雄市第一九二分公司,高雄市3民區大豐1路151號、2樓及153號、2樓,1,120.3309344,22.6571351
22555003,統一超商股份有限公司,16843978,台南市第一三０分公司,臺南市南區新興里健康路2段1號,3,120.1974457,22.981305
22555003,統一超商股份有限公司,16843983,台南市第一二九分公司,臺南市安南區海佃里海佃路1段211號,3,120.1915089,23.025477
22555003,統一超商股份有限公司,16843999,台北市第四一六分公司,臺北市南港區南港路3段49-1號,3,121.5898447,25.0532323
22555003,統一超商股份有限公司,16844006,新北市第三九四分公司,新北市新莊區中和街174、176號,1,121.447534,25.0492439
22555003,統一超商股份有限公司,16844012,台南市第一二七分公司,臺南市安平區校前里建平7街689號,1,120.1689215,22.9899543
22555003,統一超商股份有限公司,16844028,台南市第一二八分公司,臺南市東區崇德路269號,1,120.2215754,22.9783274
22555003,統一超商股份有限公司,16844152,宜蘭縣第二十二分公司,宜蘭縣5結鄉中正路2段127號,1,121.7687721,24.698077
22555003,統一超商股份有限公司,16844168,台北縣第三九五分公司,新北市板橋區南雅西路2段2號,3,121.4531926,25.0091578
22555003,統一超商股份有限公司,16844174,台北縣第三九六分公司,新北市林口區文化2路1段378號之1之2之3,1,121.3697408,25.0724101
22555003,統一超商股份有限公司,16844189,桃園縣第一五九分公司,桃園市蘆竹區南山路2段511號,3,121.2854327,25.0738943
22555003,統一超商股份有限公司,16844195,台中市第一五四分公司,臺中市西屯區臺灣大道2段938、940號,1,120.6513877,24.1620002
22555003,統一超商股份有限公司,16844441,花蓮縣第二十八分公司,花蓮縣瑞穗鄉中正北路8、十、十2號,3,121.3778258,23.4987288
22555003,統一超商股份有限公司,16844456,台北市第四一七分公司,臺北市士林區中山北路570號,3,121.5227519,25.0581409
22555003,統一超商股份有限公司,16844462,桃園縣第一六０分公司,桃園市桃園區文中路747號,1,121.275014,24.992893
22555003,統一超商股份有限公司,16844478,彰化縣第五十四分公司,彰化縣彰化市工校街21號,1,120.55585,24.083546
22555003,統一超商股份有限公司,16844483,高雄市第一九三分公司,高雄市3民區安邦里十全2路122號,3,120.2997032,22.6458376
22555003,統一超商股份有限公司,16844499,高雄市第四三六分公司,高雄市路竹區華正路390號,1,120.2278723,22.8597281
22555003,統一超商股份有限公司,16844673,台北縣第三九七分公司,新北市板橋區文化路1段223、225號,3,121.4638558,25.0173655
22555003,統一超商股份有限公司,16844688,台中市第一五五分公司,臺中市中區平等街1號,3,120.6783852,24.139465
22555003,統一超商股份有限公司,16844694,台中縣第一一二分公司,臺中市外埔區甲后路689、691號,3,120.6381736,24.3419895
22555003,統一超商股份有限公司,16845053,台北市第四一八分公司,臺北市大安區建國南路1段28、3號,1,121.5362517,25.0443396
22555003,統一超商股份有限公司,16845069,台北市第四一九分公司,臺北市萬華區武昌街2段114號,3,121.5046214,25.0451091
22555003,統一超商股份有限公司,16845075,台北市第四二０分公司,臺北市南港區研究院路1段99號之十4,1,121.6164501,25.0521838
22555003,統一超商股份有限公司,16845080,台北縣第三九八分公司,新北市汐止區臺北縣汐止鎮大同路3段332號,1,121.6794157,25.0710356
22555003,統一超商股份有限公司,16845096,台北縣第三九九分公司,新北市中和區建8路十8號,3,121.4853103,24.9962178
22555003,統一超商股份有限公司,16845103,桃園縣第一六一分公司,桃園市桃園區大業路1段59、61號,3,121.3174458,25.0047221
22555003,統一超商股份有限公司,16845119,台中縣第一一三分公司,臺中市潭子區雅潭路2段186之1號,3,120.693182,24.2161775
22555003,統一超商股份有限公司,16845125,台中縣第一一四分公司,臺中市潭子區勝利路131號,3,120.700946,24.2096991
22555003,統一超商股份有限公司,16845130,台南市第一三一分公司,臺南市東區德東街88號,3,120.2297475,22.961516
22555003,統一超商股份有限公司,16845413,新竹縣第二十八分公司,新竹縣竹北市光明6路333號,3,121.0023962,24.8315759
22555003,統一超商股份有限公司,16845429,南投縣第二十九分公司,南投縣南投市南崗1路1號,3,120.6679892,23.9344907
22555003,統一超商股份有限公司,16845650,台北縣第四００分公司,新北市板橋區溪福里金門街303、305號,1,121.4300668,24.9864355
22555003,統一超商股份有限公司,16845666,台北縣第四０一分公司,新北市板橋區中正路1巷十8號,3,121.4557403,25.0118965
22555003,統一超商股份有限公司,16845672,桃園縣第一六二分公司,桃園市桃園區安慶街84、86號,1,121.2925878,25.0182716
22555003,統一超商股份有限公司,16845687,桃園縣第一六三分公司,桃園市桃園區春日路666號,3,121.3107447,25.0105452
22555003,統一超商股份有限公司,16845693,苗栗縣第三十一分公司,苗栗縣通霄鎮中正路19號,1,120.6821075,24.4901114
22555003,統一超商股份有限公司,16845700,台南市第一三二分公司,臺南市北區安民里海安路3段2號,1,120.199028,23.000627
22555003,統一超商股份有限公司,16845716,台南市第三十六分公司,臺南市永康區烏竹里自強路825-1號,1,120.2641637,23.0377891
22555003,統一超商股份有限公司,16845722,高雄市第一九四分公司,高雄市苓雅區意誠里3多4路79號,3,120.301254,22.612733
22555003,統一超商股份有限公司,16846118,宜蘭縣第二十三分公司,宜蘭縣蘇澳鎮江夏路27號,1,121.8648803,24.5822624
22555003,統一超商股份有限公司,16846124,宜蘭縣第二十四分公司,宜蘭縣冬山鄉義成路3段2號、永興路1段452號,1,121.7642968,24.6553313
22555003,統一超商股份有限公司,16846139,台北市第四二一分公司,臺北市中正區懷寧街十7號,3,121.514273,25.045484
22555003,統一超商股份有限公司,16846145,台北市第四二二分公司,臺北市內湖區成功路3段201號,1,121.5910481,25.0806451
22555003,統一超商股份有限公司,16846166,屏東縣第五十三分公司,屏東縣屏東市忠孝路229-9號,3,120.4892177,22.683824
22555003,統一超商股份有限公司,16846172,彰化縣第五十五分公司,彰化縣溪湖鎮員鹿路1段101號,3,120.5107005,23.952667
22555003,統一超商股份有限公司,16846187,台北縣第四０二分公司,新北市中和區中興街162、164號,1,121.4998221,24.9915981
22555003,統一超商股份有限公司,16846594,台北市第四二三分公司,臺北市信義區松山路608、610號,1,121.5785008,25.0358094
22555003,統一超商股份有限公司,16846601,台北市第四二四分公司,臺北市內湖區康寧路3段99巷14號、康寧路3段99巷12弄2號,1,121.610624,25.074331
22555003,統一超商股份有限公司,16846617,雲林縣第三十七分公司,雲林縣古坑鄉永昌村光興路108號,3,120.5492583,23.6275396
22555003,統一超商股份有限公司,16846623,新北市第四○三分公司,新北市汐止區臺北縣汐止鎮伯爵街32號、34號,1,121.6389272,25.0783209
22555003,統一超商股份有限公司,16846638,高雄市第一九五分公司,高雄市楠梓區中陽里建楠路139號,1,120.3268458,22.7268136
22555003,統一超商股份有限公司,16847051,台北縣第四０五分公司,新北市3重區永福街124號,3,121.4793169,25.0750488
22555003,統一超商股份有限公司,16847067,台北縣第四０六分公司,新北市板橋區陽明街94、96、98號,3,121.464063,25.02364
22555003,統一超商股份有限公司,16847073,桃園縣第一六四分公司,桃園市蘆竹區濱海路1段40、42號,1,121.2545507,25.1118164
22555003,統一超商股份有限公司,16847088,桃園縣第一六五分公司,桃園市中壢區成章2街192號,1,121.257145,24.980354
22555003,統一超商股份有限公司,16847094,桃園縣第一六六分公司,桃園市龍潭區文化路12-3號,1,121.2448402,24.8495995
22555003,統一超商股份有限公司,16847101,台中市第一五六分公司,臺中市南區建國北路1段110號,3,120.6494473,24.1202345
22555003,統一超商股份有限公司,16847117,台中市第五十五分公司,臺中市豐原區3民路93號,1,120.720041,24.253403
22555003,統一超商股份有限公司,16847123,台南市第一三三分公司,臺南市安平區華平里永華路2段532號,1,120.1739074,22.9911113
22555003,統一超商股份有限公司,16847138,高雄市第一九六分公司,高雄市左營區大中2路617號,3,120.30748,22.683215
22555003,統一超商股份有限公司,16847144,高雄市第四○三分公司,高雄市鳳山區文華里文衡路50號,1,120.3582166,22.6333968
22555003,統一超商股份有限公司,16847159,高雄縣第九十四分公司,高雄市旗山區圓富里旗甲路2段396號,3,120.497908,22.923447
22555003,統一超商股份有限公司,16847215,台北縣第四０四分公司,新北市淡水區北新路65號,1,121.4461886,25.1784989
22555003,統一超商股份有限公司,16847524,桃園縣第一六八分公司,桃園市龜山區萬壽路2段107、107-1號,3,121.3352309,24.9942013
22555003,統一超商股份有限公司,16847539,新竹縣第二十九分公司,新竹縣湖口鄉望高樓5之4號,1,121.0449768,24.8814458
22555003,統一超商股份有限公司,16847545,台中縣第一一六分公司,臺中市豐原區合作街37巷2、4號,3,120.7093258,24.2384983
22555003,統一超商股份有限公司,16847550,彰化縣第五十六分公司,彰化縣溪湖鎮彰水路4段79號,1,120.4797992,23.9675227
22555003,統一超商股份有限公司,16847566,宜蘭縣第二十五分公司,宜蘭縣羅東鎮中正北路1、3號,3,121.7720532,24.6781174
22555003,統一超商股份有限公司,16847572,桃園縣第一六七分公司,桃園市龍潭區中原路2段362、364號,3,121.1949443,24.8380838
22555003,統一超商股份有限公司,16847587,台北市第四二五分公司,臺北市士林區至善路2段34號,3,121.54409,25.096894
22555003,統一超商股份有限公司,16847593,台北市第四二六分公司,臺北市士林區福國路94號,1,121.5223089,25.1020461
22555003,統一超商股份有限公司,16847735,金門縣第三分公司,金門縣金湖鎮環島南路2號,1,118.408694,24.436575
22555003,統一超商股份有限公司,16847741,雲林縣第三十八分公司,雲林縣斗6市光興里民生路134號,3,120.5409215,23.7108329
22555003,統一超商股份有限公司,16847756,嘉義縣第二十二分公司,嘉義縣朴子市永和里4鄰?t菜埔37之28、37之29號,3,120.2341285,23.4637092
22555003,統一超商股份有限公司,16848002,台北市第四二七分公司,臺北市南港區8德路4段778、780號,1,121.580272,25.0504394
22555003,統一超商股份有限公司,16848018,台北縣第四０七分公司,新北市新店區安康路3段195號,1,121.488015,24.951684
22555003,統一超商股份有限公司,16848024,桃園縣第一六九分公司,桃園市桃園區復興路363號,3,121.3036923,24.990138
22555003,統一超商股份有限公司,16848039,雲林縣第三十九分公司,雲林縣臺西鄉民族路35號,3,120.1987511,23.6995677
22555003,統一超商股份有限公司,16848565,台北縣第一七六分公司,新北市新莊區新泰路472號,1,121.4430796,25.0452436
22555003,統一超商股份有限公司,16848571,台北縣第四０八分公司,新北市板橋區信義路72號,3,121.4573977,24.9934155
22555003,統一超商股份有限公司,16848586,桃園縣第一七０分公司,桃園市龜山區復興1路239號,3,121.363844,25.057175
22555003,統一超商股份有限公司,16848592,高雄縣第二分公司,高雄市鳳山區縣口里中正路69號、光遠路237號,3,120.3595954,22.6257341
22555003,統一超商股份有限公司,16848811,台南市第一三四分公司,臺南市東區小東里光明街117號,3,120.2284943,22.9983772
22555003,統一超商股份有限公司,16848827,台南縣第一０三分公司,臺南市關廟區香洋村十3鄰中山路1段640號,3,120.3292652,22.9595263
22555003,統一超商股份有限公司,16848832,台南縣第一０四分公司,臺南市玉井區中山路97號,1,120.4655398,23.1209273
22555003,統一超商股份有限公司,16848848,基隆市第三十三分公司,基隆市中正區北寧路250-3、250-4號,3,121.7834838,25.1460875
22555003,統一超商股份有限公司,16848853,桃園縣第一七一分公司,桃園市龜山區文化2路28-1號、28-2、28-3號,1,121.3643812,25.060594
22555003,統一超商股份有限公司,16848869,桃園縣第一七二分公司,桃園市龍潭區佳安里十1份十9號,3,121.240963,24.840076
22555003,統一超商股份有限公司,16848994,高雄市第一九七分公司,高雄市3民區本上里黃興路165號,3,120.340546,22.64679
22555003,統一超商股份有限公司,16849001,金門縣第四分公司,金門縣金城鎮民權路75號,1,118.3144142,24.4328669
22555003,統一超商股份有限公司,16849115,高雄市第四七四分公司,高雄市美濃區合和里成功路6號,3,120.5440674,22.8957062
22555003,統一超商股份有限公司,16849121,桃園縣第一七三分公司,桃園市中壢區民族路3段400、402、406號,1,121.190151,24.960661
22555003,統一超商股份有限公司,16849136,宜蘭縣第二十六分公司,宜蘭縣宜蘭市光復路26號,1,121.7566328,24.755069
22555003,統一超商股份有限公司,16849142,台中市第一五七分公司,臺中市北區5權路387號、5常街13、15號,1,120.681106,24.152983
22555003,統一超商股份有限公司,16849157,彰化縣第五十七分公司,彰化縣員林市大同路2段56號,3,120.578586,23.9681279
22555003,統一超商股份有限公司,16849163,南投縣第三十分公司,南投縣竹山鎮集山路3段1089號,1,120.6795219,23.7539056
22555003,統一超商股份有限公司,22555284,臺北市第１分公司,臺北市中山北路6段150號,1,121.5250808,25.1063689
22555003,統一超商股份有限公司,22555290,台北市第２分公司,臺北市福港街258號,3,121.517539,25.0838096
22555003,統一超商股份有限公司,22555307,臺北市第３分公司,臺北市石牌路2段76號,1,121.5162735,25.1165908
22555003,統一超商股份有限公司,22555313,臺北市第４分公司,臺北市中山北路7段174號,1,121.5327933,25.1243792
22555003,統一超商股份有限公司,22555329,台北市第５分公司,臺北市北投區榮華3路3–1號,1,121.5239553,25.1136967
22555003,統一超商股份有限公司,22555334,台北市第６分公司,臺北市北投區石牌路1段126號,1,121.509425,25.1127558
22555003,統一超商股份有限公司,22555340,台北市第７分公司,臺北市北投區中和街222號,1,121.5018741,25.1391741
22555003,統一超商股份有限公司,22555355,台北市第８分公司,臺北市士林區忠誠路2段7號,1,121.530632,25.1089687
22555003,統一超商股份有限公司,22555361,台北市第九分公司,臺北市松山區8德路3段200、202號,1,121.5565057,25.0479968
22555003,統一超商股份有限公司,22555377,台北市第十分公司,臺北市仁愛路4段420號,3,121.5580359,25.0373599
22555003,統一超商股份有限公司,22555382,台北市第１１分公司,臺北市孝東路4段308號,3,121.556968,25.0410399
22555003,統一超商股份有限公司,22555398,台北市第十二分公司,臺北市松山區南京東路4段131號,3,121.5550115,25.0518337
22555003,統一超商股份有限公司,22555405,台北市第十三分公司,臺北市松山區8德路3段27號,1,121.5527276,25.048393
22555003,統一超商股份有限公司,22555411,台北市第十四分公司,臺北市光復南路471號,1,121.5576657,25.0337254
22555003,統一超商股份有限公司,22555427,臺北市第十五分公司,臺北市南京東路5段十7號,3,121.5498508,25.0511028
22555003,統一超商股份有限公司,22555432,台北市第１６分公司,臺北市松信路145號,1,121.572162,25.0435429
22555003,統一超商股份有限公司,22555448,臺北市第十七分公司,臺北市信義區忠孝東路5段386號,1,121.574124,25.040764
22555003,統一超商股份有限公司,22555453,臺北市第十八分公司,臺北市信義區基隆路2段22號,1,121.5587016,25.0319986
22555003,統一超商股份有限公司,22555469,台北市第十九分公司,臺北市信義區臺北市永吉路32、34號,1,121.5689813,25.0454044
22555003,統一超商股份有限公司,22555475,台北市第二十分公司,臺北市中坡南路38號,1,121.5833667,25.0428191
22555003,統一超商股份有限公司,22555480,台北市第二十一分公司,臺北市松山路463號,3,121.5780539,25.039675
22555003,統一超商股份有限公司,22555496,台北市第二十二分公司,臺北市長安西路147、149號,3,121.5147901,25.0515143
22555003,統一超商股份有限公司,22555502,台北市第二十三分公司,臺北市松山區民生東路5段65號,1,121.5580973,25.0586364
22555003,統一超商股份有限公司,22555518,台北市第二十四分公司,臺北市松山區延壽街422號,1,121.5564331,25.0562242
22555003,統一超商股份有限公司,22555524,台北市第二十五分公司,臺北市敦化北路149號,1,121.5495491,25.0538709
22555003,統一超商股份有限公司,22555539,台北市第二十六分公司,臺北市松山區8德路2段439號,1,121.5469997,25.0483738
22555003,統一超商股份有限公司,22555545,台北市第二十七分公司,臺北市松山區民權東路3段108號,1,121.5450194,25.0618581
22555003,統一超商股份有限公司,22555550,台北市第二十八分公司,臺北市敦化北路222巷5–52號,3,121.548444,25.05923
22555003,統一超商股份有限公司,22555566,台北市第２９分公司,臺北市大安區永康街43號,1,121.529637,25.030397
22555003,統一超商股份有限公司,22555572,台北市第３０分公司,臺北市忠孝東路4段223巷2弄3號,3,121.5530391,25.0433765
22555003,統一超商股份有限公司,22555587,臺北市第３１分公司,臺北市忠孝東路3段217巷1弄2號,1,121.5396098,25.0424791
22555003,統一超商股份有限公司,22555593,台北市第３２分公司,臺北市濟南路3段7號,3,121.5336386,25.0402711
22555003,統一超商股份有限公司,22555600,台北市第３３分公司,臺北市忠孝東路3段251巷3弄2號,3,121.541749,25.0422765
22555003,統一超商股份有限公司,22555616,台北市第三十四分公司,臺北市中正區新生南路1段126-7號,1,121.5325096,25.0371229
22555003,統一超商股份有限公司,22555622,台北市第３５分公司,臺北市金華街140–1號,3,121.528431,25.029814
22555003,統一超商股份有限公司,22555637,台北市第三十六分公司,臺北市連雲街72–1、2、3號,1,121.5299552,25.0345311
22555003,統一超商股份有限公司,22555643,台北市第三十七分公司,臺北市羅斯福路3段238號,3,121.530409,25.0182579
22555003,統一超商股份有限公司,22555658,台北市第三十八分公司,臺北市中正區南昌路1段72號,3,121.5171828,25.0310873
22555003,統一超商股份有限公司,22555664,台北市第３９分公司,臺北市大安區師大路87號,1,121.5285488,25.0232307
22555003,統一超商股份有限公司,22555670,台北市第四十分公司,臺北市延平南路173號,3,121.5076495,25.034733
22555003,統一超商股份有限公司,22555685,台北市第４１分公司,臺北市和平東路1段212號,3,121.442769,24.974814
22555003,統一超商股份有限公司,22555691,台北市第四十二分公司,臺北市和平西路1段100號,3,121.5177458,25.0265492
22555003,統一超商股份有限公司,22555708,台北市第四十三分公司,臺北市環河南路2段242、242–1號,3,121.4922603,25.0333563
22555003,統一超商股份有限公司,22555714,臺北市第４４分公司,臺北市和平東路3段308巷30號,1,121.5556232,25.0198326
22555003,統一超商股份有限公司,22555720,台北市第４５分公司,臺北市復興南路2段308巷5號,3,121.5430086,25.0236436
22555003,統一超商股份有限公司,22555735,台北市第四十六分公司,臺北市大安區敦化南路1段236巷13號,1,121.5473505,25.0407185
22555003,統一超商股份有限公司,22555741,台北市第４７分公司,臺北市大安區信義路4段265巷12弄1號,1,121.554317,25.0343188
22555003,統一超商股份有限公司,22555756,台北市第四十八分公司,臺北市仁愛路4段141號,3,121.5511533,25.0379874
22555003,統一超商股份有限公司,22555762,台北市第４９分公司,臺北市大安路1段205號,3,121.546344,25.041152
22555003,統一超商股份有限公司,22555778,台北市第５０分公司,臺北市大安區安和路1段86號,1,121.5523932,25.034707
22555003,統一超商股份有限公司,22555783,台北市第５１分公司,臺北市文山區忠順街1段26巷15號,1,121.5597228,24.982517
22555003,統一超商股份有限公司,22555799,台北市第五十二分公司,臺北市羅斯福路5段190–3號,3,121.5384998,25.0036606
22555003,統一超商股份有限公司,22555806,台北市第五十三分公司,臺北市木柵區新光路1段141號,3,121.573969,24.993149
22555003,統一超商股份有限公司,22555812,臺北市第五十四分公司,臺北市松山區南京東路3段303巷5號、3弄2號,1,121.546691,25.0524769
22555003,統一超商股份有限公司,22555828,台北市第五十五分公司,臺北市雙城街十6–1號,1,121.5236606,25.0641887
22555003,統一超商股份有限公司,22555833,台北市第五十六分公司,臺北市南京西路316號,3,121.513,25.053913
22555003,統一超商股份有限公司,22555849,台北市第五十七分公司,臺北市中山區農安街28-2號,1,121.5264024,25.0648078
22555003,統一超商股份有限公司,22555854,台北市第五十八分公司,臺北市中山區林森北路617號,3,121.5258828,25.0667765
22555003,統一超商股份有限公司,22555860,台北市第五十九分公司,臺北市大同區重慶北路3段258、260、262號,1,121.5135643,25.0714299
22555003,統一超商股份有限公司,22555876,台北市第６０分公司,臺北市士林區格致路45、47號,3,121.546419,25.137458
22555003,統一超商股份有限公司,22555881,臺北市第６１分公司,臺北市民權西路38號,1,121.5212091,25.0625549
22555003,統一超商股份有限公司,22555897,台北市第六十二分公司,臺北市農安街227之1號,3,121.5340088,25.0648598
22555003,統一超商股份有限公司,22555904,台北市第六十三分公司,臺北市中正區青島東路4號,1,121.5215561,25.0438968
22555003,統一超商股份有限公司,22555910,台北市第六十四分公司,臺北市中正區武昌街1段1-2號,1,121.513528,25.0441669
22555003,統一超商股份有限公司,22555926,台北市第六十五分公司,臺北市士林區中正路220、222號,1,121.5260786,25.0955186
22555003,統一超商股份有限公司,22555931,台北市第六十六分公司,臺北市中華商場義棟67號,1,121.5654177,25.0329694
22555003,統一超商股份有限公司,22555947,台北市第六十七分公司,臺北市萬華區康定路99號,3,121.502011,25.0396317
22555003,統一超商股份有限公司,22555952,台北市第六十八分公司,臺北市中正區金山南路1段108號,1,121.5272826,25.035393
22555003,統一超商股份有限公司,22555968,台北市第六十九分公司,臺北市萬華區康定街203、205號,1,121.5025139,25.04062
22555003,統一超商股份有限公司,22555974,台北市第七十分公司,臺北市長安東路1段53巷1–6號,3,121.52658,25.049311
22555003,統一超商股份有限公司,22555989,台北市第七十一分公司,臺北市中山北路1段105巷8號,1,121.522992,25.0561769
22555003,統一超商股份有限公司,22555995,臺北市第七十二分公司,臺北市南京東路1段132巷8號,3,121.5270438,25.0513075
22555003,統一超商股份有限公司,22656001,臺北市第７３分公司,臺北市南京東路1段132巷21–1號,1,121.5271201,25.051054
22555003,統一超商股份有限公司,22656017,台北市第七十四分公司,臺北市1江街43號,3,121.5316558,25.0542819
22555003,統一超商股份有限公司,22656023,臺北市第７５分公司,臺北市長安東路2段81號,1,121.5345357,25.0485709
22555003,統一超商股份有限公司,22656038,台北市第七十六分公司,臺北市長安東路1段73號,3,121.527757,25.048505
22555003,統一超商股份有限公司,22656044,台北市第七十七分公司,臺北市中山區天津街65號,1,121.5235516,25.0517312
22555003,統一超商股份有限公司,22656059,台北市第七十八分公司,臺北市長安東路1段8之3號,1,121.5250423,25.0489161
22555003,統一超商股份有限公司,22656065,台北市第七十九分公司,臺北市吉林路211號,3,121.5304103,25.0602903
22555003,統一超商股份有限公司,22656071,台北市第八十分公司,臺北市民權東路2段152巷8號,3,121.5347288,25.061313
22555003,統一超商股份有限公司,22656086,台北市第八十一分公司,臺北市中山區民生東路2段111、113號,1,121.5314186,25.0581029
22555003,統一超商股份有限公司,22656092,台北市第八十二分公司,臺北市林森北路362號,3,121.5253395,25.0573392
22555003,統一超商股份有限公司,22656109,臺北市第８３分公司,臺北市松江路312號,3,121.532839,25.060453
22555003,統一超商股份有限公司,22656115,台北市第八十四分公司,臺北市龍江路244號,1,121.540395,25.059184
22555003,統一超商股份有限公司,22656121,台北市第八十五分公司,臺北市興安街128號,3,121.5436493,25.0558986
22555003,統一超商股份有限公司,22656136,台北市第八十六分公司,臺北市林森北路500號,1,121.5254793,25.0618477
22555003,統一超商股份有限公司,22656142,台北市第八七分公司,臺北市忠孝東路4段560號1,1,121.5637989,25.0407381
22555003,統一超商股份有限公司,22656157,臺北市第八十八分公司,臺北市士林區大東路83、85號,3,121.525683,25.090827
22555003,統一超商股份有限公司,22656163,台北市第八十九分公司,臺北市中山區合江街58巷1號：60、60-1號,1,121.538936,25.0558319
22555003,統一超商股份有限公司,22656179,臺北市第９０分公司,臺北市敦化南路5號,3,121.549253,25.03279
22555003,統一超商股份有限公司,22656184,台北縣第一分公司,新北市新店區百忍街43巷23弄1號,1,121.533163,24.9762532
22555003,統一超商股份有限公司,22656190,新北市第二分公司,新北市新店區3民路179號,1,121.534852,24.975259
22555003,統一超商股份有限公司,22656207,新北市第三分公司,新北市新店區3民路50、52號,1,121.5355732,24.9719709
22555003,統一超商股份有限公司,22656213,台北縣第四分公司,新北市新店區中正路236號,1,121.5398426,24.9730629
22555003,統一超商股份有限公司,22656229,台北縣第五分公司,新北市淡水區中正東路3號,1,121.445375,25.1689314
22555003,統一超商股份有限公司,22656234,臺北縣第６分公司,新北市中和區中和路202號,1,121.505441,24.999612
22555003,統一超商股份有限公司,22656240,台北縣第七分公司,新北市新莊區中正路516-1號,1,121.433449,25.032465
22555003,統一超商股份有限公司,22656255,台北縣第八分公司,新北市永和區竹林路211號,1,121.5207869,25.0089259
22555003,統一超商股份有限公司,22656261,台中市第１分公司,臺中市向上北路192、194號,3,120.6607519,24.1479249
22555003,統一超商股份有限公司,22656277,臺中市第２分公司,臺中市西屯逢甲路10號,1,120.646159,24.1790169
22555003,統一超商股份有限公司,22656282,台中市第３分公司,臺中市西區美村路1段542、546號,1,120.661558,24.1395617
22555003,統一超商股份有限公司,22656298,台中市第４分公司,臺中市5權路1–201號,3,120.6670582,24.1319947
22555003,統一超商股份有限公司,22656305,台中市第５分公司,臺中市愛國街79號,3,120.677539,24.130758
22555003,統一超商股份有限公司,22656311,台中市第６分公司,臺中市北區進化北路297號,1,120.682498,24.162921
22555003,統一超商股份有限公司,22656327,臺中市第７分公司,臺中市西屯路2段280號,1,120.644117,24.1759989
22555003,統一超商股份有限公司,22656332,臺中市第８分公司,臺中市自治街17號,1,120.6720596,24.1376739
22555003,統一超商股份有限公司,22656348,台中市第九分公司,臺中市北區學士路67、6號,1,120.6826069,24.1544777
22555003,統一超商股份有限公司,22656353,台中市第１０分公司,臺中市3民路3段142號,3,120.6848447,24.1512068
22555003,統一超商股份有限公司,22656369,臺中市第十一分公司,臺中市中區臺中市光榮里篤行路120、122號,1,120.676212,24.1481459
22555003,統一超商股份有限公司,22656375,台中市第十二分公司,臺中市北屯路37號,1,120.6985587,24.1736442
22555003,統一超商股份有限公司,22656380,台中市第１３分公司,臺中市市府路135號,3,120.682405,24.1421099
22555003,統一超商股份有限公司,22656396,臺中縣第一分公司,臺中縣霧?頞m中正路914號,3,120.6988009,24.0644222
22555003,統一超商股份有限公司,22656403,台南市第一分公司,臺南市南區大忠里大同路2段498號,3,120.2145762,22.9725719
22555003,統一超商股份有限公司,22656419,台南市第二分公司,臺南市安南區安和路5段166、168號,1,120.2180232,23.0662271
22555003,統一超商股份有限公司,22656425,臺南市第３分公司,臺南市東區育樂里勝利路175號,3,120.2179276,22.9959633
22555003,統一超商股份有限公司,22656430,台南市第四分公司,臺南市臨安路1段145號,3,120.1895462,22.9984119
22555003,統一超商股份有限公司,22656446,台南市第五分公司,臺南市中西區康樂街223號,1,120.1946805,22.9947962
22555003,統一超商股份有限公司,22656451,台南市第六分公司,臺南市金華路3段54號,1,120.192669,22.9896781
22555003,統一超商股份有限公司,22656467,台南市第七分公司,臺南市中西區青年路134號,1,120.2091687,22.9918257
22555003,統一超商股份有限公司,22656473,臺南市第８分公司,臺南市中華路1段612號,1,120.228103,23.017464
22555003,統一超商股份有限公司,22656488,臺南市第９分公司,臺南市健康路632、634號,3,120.1977343,22.9815907
22555003,統一超商股份有限公司,22656494,台南市第十分公司,臺南市北區北園街78、78-1、78-2、78-3號,1,120.223075,23.012305
22555003,統一超商股份有限公司,22656500,台南市第十一分公司,臺南市民權路2段275號,3,120.2006218,22.995719
22555003,統一超商股份有限公司,22656516,台南市第十二分公司,臺南市北區公園路1072之1、2、3號,1,120.215918,23.01848
22555003,統一超商股份有限公司,22656522,台南市第十三分公司,臺南市東區長榮路3段139、141、143號,1,120.221618,22.9959501
22555003,統一超商股份有限公司,22656537,台南市第十四分公司,臺南市東區林森路2段84、86號,1,120.223184,22.987019
22555003,統一超商股份有限公司,22656543,台南市第十五分公司,臺南市東區青年路416號,1,120.2165808,22.9910891
22555003,統一超商股份有限公司,22656558,台南市第十六分公司,臺南市北區公園路599之11號,1,120.2127152,23.0144531
22555003,統一超商股份有限公司,22656564,臺南縣第１分公司,臺南縣永康鄉?\行村中正路331號,1,120.2441685,23.0347827
22555003,統一超商股份有限公司,22656570,高雄縣第１分公司,高雄縣蔦松鄉蔦松村大埤路123號地下,3,120.3561418,22.64962
22555003,統一超商股份有限公司,22656585,高雄市第１分公司,高雄市球庭路67之2、3號,3,120.3042,22.630248
22555003,統一超商股份有限公司,22656591,高雄市第２分公司,高雄市新興區新田路189、191號,1,120.3023998,22.621763
22555003,統一超商股份有限公司,22656608,高雄市第３分公司,高雄市中山2路314號,3,120.304087,22.615776
22555003,統一超商股份有限公司,22656614,高雄巿第四分公司,高雄市建國1路205號,3,120.3731078,22.6351706
22555003,統一超商股份有限公司,22656620,高雄市第５分公司,高雄市青年1路98號,3,120.312314,22.623676
22555003,統一超商股份有限公司,22656635,高雄巿第六分公司,高雄市5福4路65號,3,120.286623,22.621943
22555003,統一超商股份有限公司,22656641,高雄巿第７分公司,高雄市小港區漢民路270、272號,1,120.353434,22.566686
22555003,統一超商股份有限公司,22656656,高雄巿第８分公司,高雄市3民區復興1路176號,1,120.308841,22.63739
22555003,統一超商股份有限公司,22656662,高雄巿第九分公司,高雄市7賢2路203號,3,120.2938839,22.6323978
22555003,統一超商股份有限公司,22656678,高雄巿第十分公司,高雄市3民區建國2路233號,1,120.305044,22.6374289
22555003,統一超商股份有限公司,22656683,高雄巿第十一分公司,高雄市自立1路120號,3,120.296542,22.6380269
22555003,統一超商股份有限公司,22656699,高雄巿第十二分公司,高雄市3民區建國1路417號,1,120.317009,22.6345729
22555003,統一超商股份有限公司,22656706,高雄市第十三分公司,高雄市林森1路232號,3,120.3051246,22.634609
22555003,統一超商股份有限公司,22656712,高雄市第十四分公司,高雄市7賢2路384、386號,3,120.296535,22.6332242
22555003,統一超商股份有限公司,22657711,台北巿第九十一分公司,臺北市中山北路7段104、106號,3,121.5319004,25.1219099
22555003,統一超商股份有限公司,22657727,台中巿第１４分公司,臺中市北區3民路3段258、260號,1,120.6833678,24.1487961
22555003,統一超商股份有限公司,22658280,台南巿第十七分公司,臺南市中西區健康路1段166號,1,120.207352,22.9813781
22555003,統一超商股份有限公司,22658296,高雄巿第十五分公司,高雄市苓雅區福隆里3多1路315、317、319號,3,120.3284158,22.6190544
22555003,統一超商股份有限公司,22658303,高雄巿第十六分公司,高雄市前金區5福3路54號,1,120.297248,22.6220701
22555003,統一超商股份有限公司,22658319,高雄巿第１７分公司,高雄市中山1路292號,3,120.3026878,22.6356216
22555003,統一超商股份有限公司,22658325,臺中巿第１５分公司,臺中市西區5廊街6–2號,1,120.6704938,24.1419984
22555003,統一超商股份有限公司,22658330,台北巿第九十二分公司,臺北市承德路4段28號,3,121.5219812,25.0804086
22555003,統一超商股份有限公司,22659627,臺北巿第九三分公司,臺北市內湖路1段733號,1,121.5781871,25.0791388
22555003,統一超商股份有限公司,22659632,台北巿第九十四分公司,臺北市永吉路325號,1,121.575739,25.045662
22555003,統一超商股份有限公司,22659648,台北縣第九分公司,新北市永和區文化路7號,1,121.5154161,25.0148839
22555003,統一超商股份有限公司,22660075,台南巿第十八分公司,臺南市中山路166–6號,1,120.21047,22.995711
22555003,統一超商股份有限公司,22660080,台中巿第１６分公司,臺中市西屯路2段67之2號,3,120.6579491,24.1648637
22555003,統一超商股份有限公司,22660342,台南巿第十九分公司,臺南市東區林森路1段184號,1,120.2162854,22.9820321
22555003,統一超商股份有限公司,22660912,台北巿第九十五分公司,臺北市萬大路245、247號,1,121.5006512,25.0261328
22555003,統一超商股份有限公司,22660928,台北巿第九十六分公司,臺北市明德路114、116號,1,121.5202804,25.1098719
22555003,統一超商股份有限公司,22660933,台北巿第九十七分公司,臺北市信義路6段38號,3,121.5758399,25.034336
22555003,統一超商股份有限公司,22661243,台北巿第九十八分公司,臺北市東園街69、71、71–1號73巷1號,1,121.4965123,25.026062
22555003,統一超商股份有限公司,22764727,台北市第９９分公司,臺北市羅斯福路3段267號,3,121.530524,25.0187558
22555003,統一超商股份有限公司,22764732,高雄市第十八分公司,高雄市復興2路45、45–1號,1,120.310164,22.620272
22555003,統一超商股份有限公司,22764917,台南巿第二十分公司,臺南市西門路1段607號,3,120.2664939,23.3181109
22555003,統一超商股份有限公司,22765423,台北巿第１００分公司,臺北市福德街189號,3,121.5841514,25.0382651
22555003,統一超商股份有限公司,22765438,台北巿第１０１分公司,臺北市興安街57號,3,121.5423877,25.0562341
22555003,統一超商股份有限公司,22765444,高雄巿第十九分公司,高雄市廣州1街152號,1,120.317561,22.62377
22555003,統一超商股份有限公司,22765768,台南巿第二十一分公司,臺南市府前路2段178號,1,120.1937134,22.9914965
22555003,統一超商股份有限公司,22766149,台北市第１０２分公司,臺北市忠誠路2段46–1號,3,121.5303345,25.1102758
22555003,統一超商股份有限公司,22766154,台北市第１０３分公司,臺北市信義路3段109號,3,121.5393175,25.0337471
22555003,統一超商股份有限公司,22766160,台北市第１０４分公司,臺北市木新路2段255號,1,121.5666245,24.983049
22555003,統一超商股份有限公司,22817597,台中市第十七分公司,臺中市繼光街59號,1,120.6817981,24.1384923
22555003,統一超商股份有限公司,22818168,台北市第１０５分公司,臺北市信義路2段28號,3,121.525322,25.034733
22555003,統一超商股份有限公司,22818174,台南市第二十二分公司,臺南市東區北門路1段310、312號,1,120.2120668,22.996334
22555003,統一超商股份有限公司,22818907,高雄巿第二十分公司,高雄市自立1路287、289號,3,120.2962392,22.6431881
22555003,統一超商股份有限公司,22819053,高雄巿第二十一分公司,高雄市成功1路273號,4,120.2951167,22.620406
22555003,統一超商股份有限公司,22819069,台北巿第１０６分公司,臺北市士林區天母西路39之1號,1,121.5294605,25.1185629
22555003,統一超商股份有限公司,22819510,高雄巿第二十二分公司,高雄市建國3路487號,1,120.289584,22.635557
22555003,統一超商股份有限公司,22819526,台北巿第１０７分公司,臺北市木柵路1段168、170號,3,121.5522328,24.9877211
22555003,統一超商股份有限公司,22819531,台中巿第１８分公司,臺中市中山路188、190號,3,120.6794502,24.1412508
22555003,統一超商股份有限公司,22819547,台中巿第１９分公司,臺中市中正路419號,3,120.6916646,24.0416454
22555003,統一超商股份有限公司,22819841,台北巿第１０８分公司,臺北市木柵路2段157、159號,1,121.562902,24.9891166
22555003,統一超商股份有限公司,22819856,台北縣第十分公司,新北市3重區3和路2段6號,3,121.5012471,25.0665803
22555003,統一超商股份有限公司,22819862,台中巿第２０分公司,臺中市西屯路1段175號,3,120.665313,24.1601849
22555003,統一超商股份有限公司,22819878,台中巿第２１分公司,臺中市南區國光路301號,1,120.679577,24.122281
22555003,統一超商股份有限公司,22819883,台南巿第二十三分公司,臺南市北門路1段十3、十5、十7、十9號,3,120.2149389,23.0054026
22555003,統一超商股份有限公司,22819899,高雄巿第二十三分公司,高雄市成功1路147號,1,120.29694,22.6156353
22555003,統一超商股份有限公司,22820208,台北巿第１０９分公司,臺北市龍江路281         墱W1號,1,121.540946,25.060061
22555003,統一超商股份有限公司,22820214,臺北縣第１２分公司,新北市中和區中山路3段186號,3,121.4722984,25.006594
22555003,統一超商股份有限公司,22820220,台北縣第十一分公司,新北市永和區自由街2號,1,121.5148483,25.0070953
22555003,統一超商股份有限公司,22820679,台北巿第１１０分公司,臺北市大安區瑞安街182號,1,121.5410611,25.0285459
22555003,統一超商股份有限公司,22820684,台北縣第十四分公司,新北市中和區興南路1段67號,3,121.5102274,24.9893937
22555003,統一超商股份有限公司,22820690,台北縣第十三分公司,新北市永和區中正路342號,3,121.5178412,25.0002471
22555003,統一超商股份有限公司,22820875,台南巿第二十四分公司,臺南市成功路56號,3,120.207273,22.9982233
22555003,統一超商股份有限公司,22821207,台北縣第十五分公司,新北市板橋區中正路27號,3,121.456173,25.012775
22555003,統一超商股份有限公司,22821213,臺北巿第１１１分公司,臺北市民生東路4段103號,3,121.5524769,25.0582061
22555003,統一超商股份有限公司,22821620,台中巿第二十二分公司,臺中市大雅路247、249號,1,120.6486206,24.2235391
22555003,統一超商股份有限公司,22822058,台北巿第１１３分公司,臺北市寧波西街3號,1,121.5187589,25.0315267
22555003,統一超商股份有限公司,22822064,臺北巿第１１２分公司,臺北市忠孝東路4段500號,1,121.56174,25.0408473
22555003,統一超商股份有限公司,22822070,臺中縣第二分公司,臺中市太平區中興路171、173號,1,120.713554,24.125726
22555003,統一超商股份有限公司,22822888,台北巿第１１４分公司,臺北市萬大路188號,3,121.5003555,25.0277165
22555003,統一超商股份有限公司,22822894,台北縣第十八分公司,新北市3重區正義北路十5–5號,3,121.4973598,25.0634819
22555003,統一超商股份有限公司,22822901,台中巿第２３分公司,臺中市綠川東街110、112號,3,120.6856254,24.1394251
22555003,統一超商股份有限公司,22822917,台北縣第十六分公司,新北市板橋區文化路1段291、293號,3,121.4652441,25.0187829
22555003,統一超商股份有限公司,22822923,台北縣第十七分公司,新北市3重區正義北路235號,1,121.4959507,25.0692457
22555003,統一超商股份有限公司,22954493,台北縣第十九分公司,新北市永和區得和路377號,3,121.524768,24.9994746
22555003,統一超商股份有限公司,22954509,台北巿第１１５分公司,臺北市文德路103號,3,121.5835764,25.0786953
22555003,統一超商股份有限公司,22954515,台北縣第二十分公司,新北市永和區永平路1號,3,121.50783,25.011969
22555003,統一超商股份有限公司,22955660,台北巿第１１６分公司,臺北市成功路4段313號,3,121.5984675,25.0844954
22555003,統一超商股份有限公司,22955676,台北縣第二十一分公司,新北市板橋區大觀路1段26號,3,121.450135,25.0085354
22555003,統一超商股份有限公司,22955850,台北巿第１１８分公司,臺北市金龍路64、66號,3,121.5929105,25.0848656
22555003,統一超商股份有限公司,22955866,台北巿第１１７分公司,臺北市士林區仰德大道3段68、70號,1,121.5529057,25.1188302
22555003,統一超商股份有限公司,22955872,台中巿第２４分公司,臺中市西屯區青海路1號及漢口街1段155號,1,120.6456753,24.1703635
22555003,統一超商股份有限公司,22955887,高雄巿第二十四分公司,高雄市大同1路185之1、185之2號,3,120.3008383,22.6287907
22555003,統一超商股份有限公司,22956400,臺中縣第三分公司,臺中市豐原區3民路93號,3,120.720041,24.253403
22555003,統一超商股份有限公司,22956746,台南巿第二十五分公司,臺南市東區長榮路3段12號,1,120.2216817,22.9924623
22555003,統一超商股份有限公司,22957392,臺中縣第四分公司,臺中市豐原區中正路500號,1,120.7087618,24.2505937
22555003,統一超商股份有限公司,22957409,高雄巿第二十五分公司,高雄市前金區自強2路39號,1,120.2960311,22.6232274
22555003,統一超商股份有限公司,22958218,高雄巿第二十六分公司,高雄市7賢2路171號,3,120.2942011,22.6278727
22555003,統一超商股份有限公司,22958224,臺北巿第一一九分公司,臺北市大同區承德路3段60、60-1號,1,121.5181137,25.0653753
22555003,統一超商股份有限公司,22958239,台北巿第１２０分公司,臺北市中山區復興北路352號,3,121.543951,25.0601145
22555003,統一超商股份有限公司,22958245,台北巿第一二一分公司,臺北市大安區大安路1段52巷21號,3,121.5451473,25.0432931
22555003,統一超商股份有限公司,22958553,台北巿第１２２分公司,臺北市和平東路2段十8號,1,121.5446784,25.0447121
22555003,統一超商股份有限公司,22958569,高雄巿第二十七分公司,高雄市5福4路216、218號,3,120.2852189,22.6226048
22555003,統一超商股份有限公司,22958651,台中巿第二十五分公司,臺中市健行路1056、1058號,1,120.6627176,24.1561291
22555003,統一超商股份有限公司,22959096,高雄巿第二十八分公司,高雄市中華3路304號,3,120.293405,22.636529
22555003,統一超商股份有限公司,22959103,台北縣第二十三分公司,新北市新莊區新泰路267號,1,121.4458343,25.0401745
22555003,統一超商股份有限公司,22959119,台南巿第二十六分公司,臺南市東區中西里長榮路2段47號,3,120.2199036,22.9897308
22555003,統一超商股份有限公司,22959125,台北巿第１２３分公司,臺北市貴陽街2段81號,3,121.5039466,25.0398726
22555003,統一超商股份有限公司,22959130,台北縣第二十二分公司,新北市板橋區漢生西路82號,3,121.462895,25.0193446
22555003,統一超商股份有限公司,22959286,高雄市第二十九分公司,高雄市大順3路222、224號,1,120.326565,22.634459
22555003,統一超商股份有限公司,22959645,高雄巿第三十分公司,高雄市永定街2號,3,120.312552,22.616864
22555003,統一超商股份有限公司,22959650,台北巿第１２４分公司,臺北市福林路220號,3,121.532963,25.0968195
22555003,統一超商股份有限公司,22959666,台北縣第二十四分公司,新北市3重區自強路1段272號,1,121.4921163,25.0677794
22555003,統一超商股份有限公司,22959743,台北巿第１２５分公司,臺北市文山區羅斯福路6段20、22號,1,121.5395916,25.0000006
22555003,統一超商股份有限公司,23111345,台北市第１２６分公司,臺北市東湖路9號,1,121.6127032,25.0689844
22555003,統一超商股份有限公司,23111350,台北縣第二十五分公司,新北市板橋區中山路1段126、128號,3,121.4655286,25.011832
22555003,統一超商股份有限公司,23111366,台中市第２６分公司,臺中市民權路175之1號,3,120.673811,24.142856
22555003,統一超商股份有限公司,23111372,台北市第１２７分公司,臺北市長春路108號,3,121.5282321,25.0547725
22555003,統一超商股份有限公司,23111387,新北市第二十六分公司,新北市中和區中山路2段62號、64巷2號,1,121.503978,25.0046899
22555003,統一超商股份有限公司,23111605,台北巿第１２８分公司,臺北市錦州街308號,3,121.5373993,25.0601988
22555003,統一超商股份有限公司,23111611,臺中縣第五分公司,臺中市大里區中興路2段835號,1,120.686485,24.121083
22555003,統一超商股份有限公司,23111921,台北巿第１２９分公司,臺北市大安區延吉街237號,1,121.555732,25.0366238
22555003,統一超商股份有限公司,23111936,新北市第二十七分公司,新北市中和區員山路163、165、167號,1,121.481127,24.9969229
22555003,統一超商股份有限公司,23111942,台北縣第二十八分公司,新北市3重區中正北路53號,3,121.490784,25.062989
22555003,統一超商股份有限公司,23111957,高雄巿第三十一分公司,高雄市青年1路2之6、2之7號,3,120.3485334,22.6461499
22555003,統一超商股份有限公司,23112251,高雄巿第三十二分公司,高雄市民生1路1號,3,120.3111355,22.6280908
22555003,統一超商股份有限公司,23112267,台南巿第二十七分公司,臺南市東寧路357號,3,120.2284032,22.9899807
22555003,統一超商股份有限公司,23112766,台中市第２７分公司,臺中市北屯區中清路66-1、66-2號,1,120.6774777,24.154125
22555003,統一超商股份有限公司,23112772,台北縣第二十九分公司,新北市3重區正義北路159號,3,121.4965568,25.0671855
22555003,統一超商股份有限公司,23112787,台北市第１３０分公司,臺北市興隆路2段219號,1,121.55029,25.001203
22555003,統一超商股份有限公司,23112837,台南市第二十八分公司,臺南市北區西門路4段132號,1,120.2075256,23.0087967
22555003,統一超商股份有限公司,23112843,台南縣第１分公司,臺南縣永康鄉?\洲村中正南路841號,3,120.2365827,23.0409835
22555003,統一超商股份有限公司,23113189,台北巿第１３１分公司,臺北市松山路517號,3,121.5781914,25.0384227
22555003,統一超商股份有限公司,23113195,台北縣第三十分公司,新北市永和區保平路135號,1,121.5102648,25.0061903
22555003,統一超商股份有限公司,23113499,高雄巿第三十三分公司,高雄市前金區長興里瑞源路68、7、72號,1,120.297793,22.630725
22555003,統一超商股份有限公司,23113505,基隆巿第一分公司,基隆市安1路115、117號,3,121.7391833,25.1276033
22555003,統一超商股份有限公司,23113511,高雄縣第２分公司,高雄市鳳山區新富路375號,3,120.3477193,22.6149099
22555003,統一超商股份有限公司,23113717,高雄巿第三十四分公司,高雄市9如4路2005號,3,120.2857587,22.6681724
22555003,統一超商股份有限公司,23114069,台北縣第三十一分公司,新北市中和區中和路2號,3,121.4994937,25.0024092
22555003,統一超商股份有限公司,23114624,高雄巿第三十五公司,高雄市7賢1路390號,1,120.3071962,22.634399
22555003,統一超商股份有限公司,23114933,台北巿第１３２分公司,臺北市新東街6巷十7號,3,121.5651562,25.0582251
22555003,統一超商股份有限公司,23115222,台北巿第１３３分公司,臺北市延平北路3段十3號,3,121.5111796,25.0633642
22555003,統一超商股份有限公司,23115433,高雄巿第三十七分公司,高雄市7賢3路215、215–1號,3,120.2835007,22.6290253
22555003,統一超商股份有限公司,23115449,臺中縣第六分公司,臺中市大里區中興路1段11-6、11-7號 / 東南路1號,1,120.6982029,24.0804174
22555003,統一超商股份有限公司,23115454,高雄縣第３分公司,高雄市岡山區壽天路63、65號1,3,120.2923553,22.7959191
22555003,統一超商股份有限公司,23115460,臺北縣第３２分公司,新北市3重區3和路2段103號,3,121.4995135,25.0686631
22555003,統一超商股份有限公司,23115476,高雄巿第三十六分公司,高雄市左營區勝利路123、125號,1,120.2898405,22.6804018
22555003,統一超商股份有限公司,23116046,台南巿第二十九分公司,臺南市南門路4號,3,120.2044227,22.9888292
22555003,統一超商股份有限公司,23116051,高雄巿第三十八分公司,高雄市復興3路116號,1,120.3107324,22.6109688
22555003,統一超商股份有限公司,23116067,台北縣第三十三分公司,新北市中和區連城路349號,3,121.4880475,24.9960471
22555003,統一超商股份有限公司,23116377,臺中縣第７分公司,臺中縣大里鄉中興路2段446–1、446–3號,3,120.6903636,24.1089143
22555003,統一超商股份有限公司,23116502,台北縣第三十四分公司,新北市中和區宜安路148號,3,121.5095195,24.9986548
22555003,統一超商股份有限公司,23116518,台北巿第１３４分公司,臺北市士林區至誠路2段31、31-1號,1,121.5292938,25.1017461
22555003,統一超商股份有限公司,23116849,台中巿第２８分公司,臺中市復興路1段190、192號,3,120.6535463,24.1135225
22555003,統一超商股份有限公司,23218043,台北巿第１３５分公司,臺北市松山路269號,3,121.578016,25.0435529
22555003,統一超商股份有限公司,23218058,台北巿第１３６分公司,臺北市古亭區汀州路1段127、129號,1,121.5260653,25.0206514
22555003,統一超商股份有限公司,23218959,台南縣第二分公司,臺南市永康區大橋村中華路747號,1,120.2265082,23.0181356
22555003,統一超商股份有限公司,23219660,臺中縣第８分公司,臺中市龍井區新東村東園巷41、43號,3,120.5481509,24.200527
22555003,統一超商股份有限公司,23219676,高雄巿第三十九分公司,高雄市軍校路728、730、732號,3,120.293129,22.708335
22555003,統一超商股份有限公司,23220420,台北縣第三十五分公司,新北市淡水區中山路188號,3,121.441553,25.1744397
22555003,統一超商股份有限公司,23221075,台北巿第１３７分公司,臺北市峨嵋街88號,3,121.5038049,25.0440336
22555003,統一超商股份有限公司,23221363,台北巿第１３９分公司,臺北市昆明街154、156號,3,121.5045845,25.0423145
22555003,統一超商股份有限公司,23221379,台北巿第１３８分公司,臺北市忠孝東路2段132號,3,121.531762,25.0424366
22555003,統一超商股份有限公司,23221504,台南巿第三十分公司,臺南市北區公園路694、696號,1,120.2102449,23.0085235
22555003,統一超商股份有限公司,23221574,台北巿第１４０分公司,臺北市民權東路6段88號,3,121.5859141,25.0687365
22555003,統一超商股份有限公司,23221912,臺中巿第２９分公司,臺中市5權路183、183–1號,1,120.564853,24.2768664
22555003,統一超商股份有限公司,23221928,高雄巿第四十分公司,高雄市大順2路319號,3,120.3253633,22.6464637
22555003,統一超商股份有限公司,23222124,台北縣第三十六分公司,新北市3重區忠孝路1段101號,3,121.489283,25.072404
22555003,統一超商股份有限公司,23222546,嘉義巿第１分公司,嘉義市仁愛路155號,1,120.4426725,23.4695893
22555003,統一超商股份有限公司,23222551,嘉義巿第二分公司,嘉義市東區芳草里興業東路314號,3,120.4610883,23.4699323
22555003,統一超商股份有限公司,23222807,台南市第四分公司,臺南市新市區新市里華興街48號,1,120.2944896,23.0771858
22555003,統一超商股份有限公司,23222813,台南縣第三分公司,臺南市仁德區仁義村中山路497、499、501號,1,120.2548738,22.9711021
22555003,統一超商股份有限公司,23223165,台北縣第三十七分公司,新北市板橋區文化路1段367號,3,121.466669,25.02146
